OBJECTID,lon,lat,StaType,DateModif,StnType,ZipCode,State,City,Address2,Address1,Name,Code,StationName,StationFacilityName,StationAliases,x,y
1,-84.644832,43.39172,Station Building (with waiting room),2018-09-27T07:04:38,BUS,48801,MI,Alma, ,1105 Willow Run Drive, ,AAM,"Alma, MI", , ,-84.6448370052134,43.3917282758211
2,-73.809184,42.744491,Curbside Bus Stop only (no shelter),2018-09-27T07:04:38,BUS,12211,NY,Albany, ,737 Albany Shaker Road,Albany Intl Airport,ABA,"Albany, NY",Albany Intl Airport, ,-73.8091855150354,42.7444996518371
3,-90.314667,44.928553,Curbside Bus Stop only (no shelter),2018-09-28T07:04:39,BUS,54421,WI,Colby, ,1210 North Division St., ,ABB,"Abbotsford-Colby, WI", ,Colby,-90.3146738882451,44.9285611850779
4,-76.16326,39.508447,Station Building (with waiting room),2018-09-14T07:04:39,TRAIN,21001,MD,Aberdeen, ,18 East Bel Air Avenue, ,ABE,"Aberdeen, MD", , ,-76.1632620593366,39.5084549403437
5,-74.501475,39.424041,Platform with Shelter,2018-09-27T07:04:38,TRAIN,08201,NJ,Absecon, ,Shore Road and Ohio Avenue, ,ABN,"Absecon, NJ", , ,-74.5014765302998,39.4240489831207
6,-106.647975,35.082061,Station Building (with waiting room),2018-09-29T07:04:38,TRAIN,87102,NM,Albuquerque, ,320 1st Street SW, ,ABQ,"Albuquerque, NM", , ,-106.647985021302,35.0820666444239
7,-121.816024,38.0177,Platform with Shelter,2017-11-06T07:04:20,TRAIN,94509,CA,Antioch, ,100 I Street, ,ACA,"Antioch-Pittsburg, CA", ,Pittsburg,-121.816037152762,38.0177050086558
8,-74.434793,39.359556,Station Building (with waiting room),2018-04-13T07:04:13,BUS,08401,NJ,Atlantic City, ,1901 Atlantic Avenue, ,ACB,"Atlantic City, NJ", , ,-74.4347945050129,39.3595639719397
9,-90.624403,37.592161,Station Building (with waiting room),2018-09-29T07:04:39,TRAIN,63621,MO,Arcadia, ,13700 Highway 21, ,ACD,"Arcadia, MO", , ,-90.6244092225903,37.5921679303639
10,-74.439903,39.362689,Station Building (with waiting room),2018-09-27T07:04:38,TRAIN,08401,NJ,Atlantic City, ,1 Atlantic City Expressway, ,ACY,"Atlantic City, NJ", , ,-74.439904506828,39.3626969722225
11,-97.12551,34.172465,Platform only (no shelter),2024-06-08T07:05:50,TRAIN,73401,OK,Ardmore, ,251 East Main Street, ,ADM,"Ardmore, OK", , ,-97.1255176973313,34.172470981119
12,-69.799133,44.355913,Curbside Bus Stop only (no shelter),2018-09-26T07:04:41,BUS,04330,ME,Augusta, ,9 Industrial Drive, ,AGM,"Augusta, ME", , ,-69.7991332904076,44.3559220831307
13,-122.689591,42.185744,Curbside Bus Stop only (no shelter),2018-09-20T09:56:28,BUS,97520,OR,Ashland, ,499 Stadium Street,Southern Oregon University,AHL,"Ashland, OR",Southern Oregon University, ,-122.689604867697,42.185749253788
14,-120.578288,37.364226,Curbside Bus Stop only (no shelter),2025-07-18T07:05:15,TRAIN,95301,CA,Atwater, ,5050 Santa Fe Drive,Castle Air Museum,AIR,"Atwater, CA",Castle Air Museum, ,-120.578300885572,37.3642310412468
15,-82.639603,38.480875,Platform with Shelter,2017-11-06T07:04:22,TRAIN,41101,KY,Ashland, ,99 15th Street, ,AKY,"Ashland, KY", , ,-82.6396069802708,38.4808824755953
16,-84.790596,45.440201,Curbside Bus Stop only (no shelter),2018-09-27T07:04:38,BUS,49706,MI,Alanson, ,7640 Burr Avenue, ,ALA,"Alanson, MI", , ,-84.7906012733067,45.4402096037575
17,-73.741147,42.641029,Station Building (with waiting room),2018-09-14T07:04:40,TRAIN,12144,NY,Rensselaer, ,525 East Street, ,ALB,"Albany-Rensselaer, NY", , ,-73.741148485347,42.6410376345124
18,-81.092904,40.921275,Platform only (no shelter),2017-11-06T07:04:22,TRAIN,44601,OH,Alliance, ,820 East Main Street, ,ALC,"Alliance, OH", , ,-81.0929076927242,40.92128301129
19,-80.644856,37.724277,Platform with Shelter,2017-11-06T07:04:22,TRAIN,24910,WV,Alderson, ,1 C&O Plaza on Railroad Avenue, ,ALD,"Alderson, WV", , ,-80.6448593290049,37.7242844082623
20,-84.755814,42.247196,Station Building (with waiting room),2017-11-06T07:04:23,TRAIN,49224,MI,Albion, ,300 North Eaton Street, ,ALI,"Albion, MI", , ,-84.7558189268155,42.2472040723965
21,-83.476459,45.062202,Curbside Bus Stop only (no shelter),2018-09-27T07:04:39,BUS,49707,MI,Alpena, ,1180 Michigan Highway 32 West, ,ALM,"Alpena, MI", , ,-83.4764638185131,45.0622106167293
22,-90.157298,38.921007,Station Building (with waiting room),2018-09-28T07:04:40,TRAIN,62002,IL,Alton, ,1 Golf Road, ,ALN,"Alton, IL", , ,-90.1573042023512,38.9210141963293
23,-103.661513,30.357302,Station Building (with waiting room),2021-01-22T07:04:20,TRAIN,79830,TX,Alpine, ,102 West Holland Avenue, ,ALP,"Alpine, TX", , ,-103.661522042259,30.3573070113731
24,-78.40162,40.514475,Station Building (with waiting room),2017-11-06T07:04:23,TRAIN,16601,PA,Altoona, ,1231 11th Avenue, ,ALT,"Altoona, PA", , ,-78.4016228263897,40.5144830503999
25,-77.06233,38.806503,Station Building (with waiting room),2017-11-06T07:04:23,TRAIN,22301,VA,Alexandria, ,110 Callahan Drive, ,ALX,"Alexandria, VA", , ,-77.0623322975023,38.8065107664096
26,-123.102774,44.630464,Station Building (with waiting room),2017-11-06T07:04:23,TRAIN,97321,OR,Albany, ,110 10th Avenue SW, ,ALY,"Albany, OR", , ,-123.102788368378,44.6304693698611
27,-74.2195,42.953719,Station Building (with waiting room),2018-09-14T07:04:40,TRAIN,12010,NY,Amsterdam, ,466 West Main Street, ,AMS,"Amsterdam, NY", , ,-74.2195016624998,42.9537276752804
28,-117.877308,33.803803,Station Building (with waiting room),2018-09-22T07:04:41,TRAIN,92806,CA,Anaheim, ,2626 East Katella Avenue, ,ANA,"Anaheim, CA", , ,-117.877320105321,33.8038078484429
29,-106.845967,38.665671,Curbside Bus Stop only (no shelter),2022-09-13T07:04:28,BUS,81210,CO,Almont, ,10366-10486 CO-135, ,ANT,"Almont, CO", , ,-106.845977407388,38.6656771449179
30,-88.405852,44.263311,Station Building (with waiting room),2018-09-28T07:04:40,BUS,54911,WI,Appleton, ,100 East Washington Street, ,APP,"Appleton, WI", , ,-88.4058582389299,44.2633192020842
31,-83.743154,42.287692,Station Building (with waiting room),2017-11-06T07:04:24,TRAIN,48104,MI,Ann Arbor, ,325 Depot Street, ,ARB,"Ann Arbor, MI", , ,-83.7431586227063,42.2877001320346
32,-124.083805,40.868633,Curbside Bus Stop only (no shelter),2021-08-13T07:04:05,BUS,95521,CA,Arcata, ,925 E Street,Transit Center,ARC,"Arcata, CA",Transit Center,"Humboldt State University,McKinleyville",-124.083818867366,40.8686380423602
33,-75.290399,40.008278,Station Building (with waiting room),2017-11-06T07:04:24,TRAIN,19003,PA,Ardmore, ,39 Station Avenue, ,ARD,"Ardmore, PA", , ,-75.2904008145754,40.0082860714921
34,-93.053284,34.113919,Station Building (with waiting room),2017-11-06T07:04:24,TRAIN,71923,AR,Arkadelphia, ,798 South 5th Street, ,ARK,"Arkadelphia, AR", , ,-93.0532906338619,34.1139251565912
35,-121.083187,38.903638,Platform with Shelter,2018-09-14T07:04:40,TRAIN,95603,CA,Auburn, ,277 Nevada Street, ,ARN,"Auburn, CA", , ,-121.083200147143,38.9036431381326
36,-123.83329,46.19021,Curbside Bus Stop only (no shelter),2018-09-27T07:04:39,BUS,97103,OR,Astoria, ,900 Marine Drive, ,ART,"Astoria, OR", , ,-123.833304801938,46.1902153808712
37,-77.481304,37.759596,Platform with Shelter,2017-11-06T07:04:25,TRAIN,23005,VA,Ashland, ,112 North Railroad Avenue, ,ASD,"Ashland, VA", , ,-77.481306364556,37.759603537068
38,-79.855712,43.313413,Station Building (with waiting room),2017-11-06T07:04:25,TRAIN,L7T 4A8,ON,Aldershot, ,1199 Waterdown Road, ,AST,"Aldershot, ON", , ,-79.8557155045587,43.3134215030289
39,-120.66476,35.488953,Curbside Bus Stop only (no shelter),2018-09-21T07:04:41,BUS,93422,CA,Atascadero, ,6000 Capistrano Avenue, ,ATA,"Atascadero, CA", , ,-120.664772706736,35.4889578593877
40,-84.392477,33.799445,Station Building (with waiting room),2018-09-29T07:04:39,TRAIN,30309,GA,Atlanta, ,"1688 Peachtree Street, NW", ,ATL,"Atlanta, GA", ,Peachtree,-84.3924812066034,33.7994514447837
41,-85.832145,33.649112,Station Building (with waiting room),2017-11-06T07:04:25,TRAIN,36201,AL,Anniston, ,126 West 4th Street, ,ATN,"Anniston, AL", , ,-85.8321496120008,33.6491183586758
42,-74.907893,39.783504,Platform with Shelter,2018-09-27T07:04:39,TRAIN,08004,NJ,Atco, ,Cooper Road and Raritan Avenue, ,ATO,"Atco, NJ", , ,-74.9078946802357,39.7835120410613
43,-70.266407,44.037697,Station Building (with waiting room),2020-11-18T07:03:56,BUS,04210,ME,Auburn, ,1707 S. Washington Street, ,AUR,"Auburn, ME", ,Lewiston,-70.2664074274821,44.0377060109128
44,-97.75694,30.269449,Station Building (with waiting room),2017-11-06T07:04:26,TRAIN,78703,TX,Austin, ,250 North Lamar Boulevard, ,AUS,"Austin, TX", , ,-97.7569476293145,30.269454215596
45,-75.471521,40.60405,Station Building (with waiting room),2023-02-01T07:07:21,BUS,18101,PA,Allentown, ,110 N 6th Street, ,AWN,"Allentown, PA", ,Lehigh University,-75.4715229087955,40.6040581821523
46,-117.813137,44.781551,Station Building (with waiting room),2018-09-27T07:04:39,BUS,97814,OR,Baker City, ,515 Campbell Street, ,BAK,"Baker City, OR", , ,-117.813150518763,44.7815568991323
47,-76.615688,39.307302,Station Building (with waiting room),2018-09-14T07:04:40,TRAIN,21201,MD,Baltimore, ,1500 North Charles Street,Penn Station,BAL,"Baltimore, MD",Penn Station,Penn Station,-76.6156901888681,39.3073098830818
48,-86.111646,42.314519,Station Building (with waiting room),2017-11-06T07:04:27,TRAIN,49013,MI,Bangor, ,541 Railroad Street, ,BAM,"Bangor, MI", , ,-86.1116513414668,42.3145270120529
49,-68.808747,44.816614,Station Building (with waiting room),2018-09-26T07:04:42,BUS,04401,ME,Bangor, ,1039 Union Street, ,BAN,"Bangor, ME", , ,-68.8087469832627,44.81662319569
50,-117.025435,34.90482,Platform with Shelter,2019-02-14T07:03:18,TRAIN,92311,CA,Barstow, ,685 North First Avenue,Harvey House Rail Depot,BAR,"Barstow, CA",Harvey House Rail Depot, ,-117.025447051247,34.9048250217433
51,-89.334,30.308734,Platform only (no shelter),2025-07-08T02:04:06,TRAIN,39520,MS,Bay St. Louis, ,1928 Depot Way, ,BAS,"Bay Saint Louis, MS", , ,-89.3340054264864,30.3087395158193
52,-118.2999,34.171299,Station Building (with waiting room),2024-08-22T10:54:58,TRAIN,91502,CA,Burbank, ,201 North Front Street,Downtown,BBK,"Burbank, CA",Downtown, ,-118.299912206351,34.1713038660964
53,-116.998434,34.891277,Curbside Bus Stop only (no shelter),2021-12-01T07:04:03,BUS,92311,CA,Barstow, ,1611 East Main St,McDonald's restaurant,BBS,"Barstow, CA",McDonald's restaurant, ,-116.998446045596,34.8912820217799
54,-71.075828,42.347317,Station Building (with waiting room),2018-12-13T07:03:24,TRAIN,02116,MA,Boston, ,145 Dartmouth Street,Back Bay Station,BBY,"Boston, MA",Back Bay Station,"Boston,Back Bay,westwood",-71.0758285958499,42.3473256703742
55,-118.628407,43.642314,Curbside Bus Stop only (no shelter),2018-06-15T07:04:17,BUS,97720,OR,Buchanan, ,42456 U.S. Highway 20, ,BCH,"Buchanan, OR", , ,-118.628420454452,43.6423197337963
56,-77.29879,38.797271,Platform with Shelter,2018-09-14T07:04:41,TRAIN,22015,VA,Burke, ,10399 Premier Court, ,BCV,"Burke Centre, VA", , ,-77.298792370329,38.7972787551668
57,-83.886922,43.601847,Station Building (with waiting room),2018-09-27T07:04:39,BUS,48708,MI,Bay City, ,1124 Washington Avenue, ,BCY,"Bay City, MI", , ,-83.8869267938141,43.6018553519741
58,-73.08709,43.798342,Curbside Bus Stop only (no shelter),2021-06-25T07:04:13,BUS,05733,VT,Brandon, ,20 Park Street, ,BDN,"Brandon, VT", , ,-73.0870913496095,43.7983508715437
59,-82.457451,27.48585,Curbside Bus Stop only (no shelter),2025-04-18T07:04:41,BUS,34212,FL,Bradenton, ,8100 FL-64, ,BDT,"Bradenton, FL", ,Ellenton,-82.4574543872657,27.4858550598634
60,-88.446964,44.729865,Curbside Bus Stop only (no shelter),2022-03-10T07:04:01,BUS,54107,WI,Bonduel, ,102 Express Way, ,BDU,"Bonduel, WI", , ,-88.4469703071525,44.7298732728242
61,-122.511255,48.720263,Station Building (with waiting room),2017-11-06T07:04:29,TRAIN,98225,WA,Bellingham, ,401 Harris Avenue, ,BEL,"Bellingham, WA", , ,-122.51127019999,48.7202686526005
62,-110.296904,31.968758,Platform with Shelter,2017-11-06T07:04:29,TRAIN,85602,AZ,Benson, ,105 East 4th Street, ,BEN,"Benson, AZ", , ,-110.296914563697,31.9687629941837
63,-72.765274,41.635595,Platform with Shelter,2018-06-15T07:04:17,TRAIN,06037,CT,Berlin, ,51 Depot Road, ,BER,"Berlin, CT", , ,-72.7652751048108,41.6356034783966
64,-88.989116,42.490067,Curbside Bus Stop only (no shelter),2018-09-26T07:04:42,BUS,61080,IL,South Beloit, ,15766 Manchester Road, ,BET,"South Beloit, IL", , ,-88.9891222121776,42.4900748794455
65,-119.00821,35.37214,Station Building (with waiting room),2018-09-14T07:04:41,TRAIN,93301,CA,Bakersfield, ,601 Truxtun Avenue, ,BFD,"Bakersfield, CA", , ,-119.00822242892,35.3721449515049
66,-69.025984,44.422692,Curbside Bus Stop only (no shelter),2018-09-26T07:04:42,BUS,04915,ME,Belfast, ,22 Belmont Avenue, ,BFT,"Belfast, ME", , ,-69.0259840342739,44.4227011185186
67,-78.873748,42.878449,Station Building (with waiting room),2019-02-14T07:03:18,TRAIN,14203,NY,Buffalo, ,75 Exchange Street,Exchange Street Station,BFX,"Buffalo, NY",Exchange Street Station,Exchange,-78.8737511556291,42.8784574706265
68,-85.483612,43.673347,Curbside Bus Stop only (no shelter),2018-09-27T07:04:40,BUS,49307,MI,Big Rapids, ,14219 Northland Drive, ,BGP,"Big Rapids, MI", , ,-85.4836172909893,43.6733552769187
69,-86.807023,33.512937,Station Building (with waiting room),2018-09-15T07:04:39,TRAIN,35203,AL,Birmingham, ,1801 Morris Avenue, ,BHM,"Birmingham, AL", , ,-86.8070278819844,33.5129432926766
70,-120.603551,43.814035,Curbside Bus Stop only (no shelter),2018-06-15T07:04:17,BUS,97712,OR,Brothers, ,34100 U.S. Highway 20, ,BHS,"Brothers, OR", , ,-120.603564818958,43.8140405602879
71,-71.18743,44.45904,Curbside Bus Stop only (no shelter),2018-09-27T07:04:40,BUS,03570,NH,Berlin, ,318 Glen Avenue, ,BIN,"Berlin, NH", , ,-71.1874307628331,44.459049056543
72,-78.870218,40.968716,Curbside Bus Stop only (no shelter),2018-07-20T07:04:38,BUS,15715,PA,Big Run, ,401 East Main Street, ,BIR,"Big Run, PA", , ,-78.8702210056329,40.9687241177949
73,-88.891134,30.39899,Platform only (no shelter),2025-03-21T07:06:38,TRAIN,39530,MS,Biloxi, ,890 Esters Blvd., ,BIX,"Biloxi, MS", , ,-88.8911393088938,30.3989955497035
74,-124.288311,42.054793,Station Building (with waiting room),2018-09-27T07:04:40,BUS,97415,OR,Brookings, ,Highway 101 & 5th Street, ,BKO,"Brookings, OR", , ,-124.288325082206,42.0547981004087
75,-123.114035,45.617864,Curbside Bus Stop only (no shelter),2020-07-08T14:48:43,BUS,97106,OR,Banks, ,118 Sunset Avenue, ,BKS,"Banks, OR", , ,-123.114049569728,45.6178694255868
76,-122.300707,37.867254,Platform with Shelter,2018-09-14T07:04:41,TRAIN,94710,CA,Berkeley, ,700 University Avenue, ,BKY,"Berkeley, CA", , ,-122.300720207953,37.8672589604567
77,-72.444597,43.13654,Station Building (with waiting room),2017-11-06T07:04:30,TRAIN,05101,VT,Bellows Falls, ,54 Depot Street, ,BLF,"Bellows Falls, VT", , ,-72.4445980935739,43.136548773028
78,-80.424583,37.232013,Curbside Bus Stop only (no shelter),2024-09-02T07:00:00,BUS,24061,VA,Blacksburg, ,250 Perry St,Virginia Tech,BLK,"Blacksburg, VA",Virginia Tech,Virginia Tech,-80.4245862319465,37.2320203166247
79,-79.219778,40.444688,Curbside Bus Stop only (no shelter),2018-07-19T07:04:40,BUS,15717,PA,Blairsville, ,1601 Old William Penn Highway, ,BLS,"Blairsville, PA", , ,-79.2197810765845,40.4446960030042
80,-73.214168,44.480327,Station Building (with waiting room),2021-10-21T07:04:21,BUS,05446,VT,Burlington, ,125 Pearl Street,Downtown Transit Center,BLT,"Burlington, VT",Downtown Transit Center, ,-73.214169439881,44.4803359890763
81,-94.127367,30.076458,Platform with Shelter,2017-11-06T07:04:31,TRAIN,77704,TX,Beaumont, ,2555 West Cedar Street, ,BMT,"Beaumont, TX", , ,-94.1273736964771,30.0764633046767
82,-79.434531,36.094225,Station Building (with waiting room),2017-11-06T07:04:31,TRAIN,27217,NC,Burlington, ,101 North Main Street, ,BNC,"Burlington, NC", , ,-79.4345338663219,36.094232116932
83,-121.301266,44.05822,Station Building (with waiting room),2024-05-29T07:07:56,BUS,97701,OR,Bend, ,334 Hawthorne Avenue, ,BND,"Bend, OR", , ,-121.301279977791,44.0582255104978
84,-72.81635,41.274677,Station Building (with waiting room),2024-08-22T10:54:58,TRAIN,06405,CT,Branford, ,39 Maple Street, ,BNF,"Branford, CT", , ,-72.8163510993153,41.2746854073172
85,-121.46873,45.71502,Platform with Shelter,2017-11-06T07:04:31,TRAIN,98605,WA,Bingen, ,Highway 14 and Walnut Street, ,BNG,"Bingen-White Salmon, WA", ,"White Salmon,Hood River,Dalles,The Dalles",-121.468744330773,45.7150256007008
86,-73.19324,42.878777,Curbside Bus Stop only (no shelter),2019-03-18T07:03:26,BUS,05201,VT,Bennington, ,215 Pleasant Street,Green Mountain Express Bus Term,BNI,"Bennington, VT",Green Mountain Express Bus Term, ,-73.1932413222315,42.8787856988897
87,-88.984306,40.50901,Station Building (with waiting room),2018-09-29T07:04:39,TRAIN,61761,IL,Normal, ,11 Uptown Circle, ,BNL,"Bloomington-Normal, IL", , ,-88.9843120114106,40.5090175418661
88,-119.064431,43.583713,Curbside Bus Stop only (no shelter),2018-06-14T07:04:19,BUS,97720,OR,Burns, ,230 Hines Boulevard, ,BNS,"Burns, OR", , ,-119.064444519548,43.5837186883047
89,-71.061122,42.366235,Station Building (with waiting room),2018-12-13T07:03:25,TRAIN,02114,MA,Boston, ,135 Causeway Street,North Station,BON,"Boston, MA",North Station,North Station,-71.0611225916422,42.3662436747389
90,-71.055304,42.352311,Station Building (with waiting room),2020-10-27T07:03:54,TRAIN,02110,MA,Boston, ,2 South Station,South Station,BOS,"Boston, MA",South Station,South Station,-71.0553045889242,42.3523196722564
91,-72.556497,42.850849,Station Building (with waiting room),2017-11-06T07:04:32,TRAIN,05301,VT,Brattleboro, ,10 Vernon Road, ,BRA,"Brattleboro, VT", , ,-72.5564981122609,42.8508577159558
92,-89.773676,43.459349,Curbside Bus Stop only (no shelter),2022-03-16T07:04:11,BUS,53913,WI,Baraboo, ,Commerce Parkway & Gateway Drive, ,BRB,"Baraboo, WI", , ,-89.7736825490748,43.4593569898666
93,-90.44107,31.582961,Station Building (with waiting room),2018-09-14T07:04:41,TRAIN,39601,MS,Brookhaven, ,440 North Railroad Avenue, ,BRH,"Brookhaven, MS", , ,-90.4410757878561,31.5829667502697
94,-69.965541,43.911388,Station Building (with waiting room),2018-06-14T07:04:19,TRAIN,04011,ME,Brunswick, ,16 Station Avenue, ,BRK,"Brunswick, ME", , ,-69.965541319837,43.9113969970367
95,-91.101951,40.805788,Station Building (with waiting room),2017-11-06T07:04:32,TRAIN,52601,IA,Burlington, ,300 South Main Street, ,BRL,"Burlington, IA", , ,-91.1019576439959,40.805795473898
96,-113.013151,48.534067,Platform with Shelter,2017-11-06T07:04:32,TRAIN,59417,MT,Browning, ,Heart Butte Road and Depot Road, ,BRO,"Browning, MT", ,"glacier,east glacier",-113.013164378939,48.5340736767166
97,-73.187539,41.178006,Station Building (with waiting room),2018-09-14T07:04:41,TRAIN,06604,CT,Bridgeport, ,525 Water Street, ,BRP,"Bridgeport, CT", , ,-73.1875402136882,41.1780143757262
98,-85.187825,42.318453,Station Building (with waiting room),2017-11-06T07:04:33,TRAIN,49017,MI,Battle Creek, ,119 McCamly Street South, ,BTL,"Battle Creek, MI", , ,-85.1878300639245,42.3184610624355
99,-73.21927,44.4757,Station Building (with waiting room),2022-11-21T10:50:00,TRAIN,05401,VT,Burlington, ,1 Main Street,Union Station,BTN,"Burlington, VT",Union Station, ,-73.2192714413001,44.4757089878582
100,-91.176374,30.449741,Station Building (with waiting room),2025-07-22T02:07:19,BUS,70802,LA,Baton Rouge, ,1253 Florida Boulevard, ,BTR,"Baton Rouge, LA", , ,-91.1763799328598,30.4497464838447
101,-73.15546,44.469865,Station Building (with waiting room),2022-05-14T07:04:10,BUS,05403,VT,South Burlington, ,1200 Airport Drive,Burlington International Airport,BTV,"South Burlington, VT",Burlington International Airport,Burlington,-73.155461419808,44.4698739895575
102,-78.726584,42.907017,Station Building (with waiting room),2019-02-14T07:03:19,TRAIN,14043,NY,Depew, ,55 Dick Road,Depew Station,BUF,"Buffalo, NY",Depew Station,Depew,-78.7265871111005,42.9070254822843
103,-120.186595,34.61066,Curbside Bus Stop only (no shelter),2018-09-21T07:04:41,BUS,93427,CA,Buellton, ,237 East Highway 246, ,BUL,"Buellton, CA", , ,-120.186607551464,34.610664802566
104,-118.353767,34.193072,Platform with Shelter,2018-09-15T07:04:40,TRAIN,91505,CA,Burbank, ,3750 Empire Avenue,Hollywood Burbank Airport,BUR,"Burbank, CA",Hollywood Burbank Airport,Hollywood,-118.353779217036,34.19307686512
105,-106.131059,38.842897,Curbside Bus Stop only (no shelter),2021-11-24T07:04:16,BUS,81211,CO,Buena Vista, ,117 N Railroad St., ,BUV,"Buena Vista, CO", , ,-106.131069267466,38.8429032176967
106,-121.803189,43.134572,Platform only (no shelter),2021-06-29T07:04:16,BUS,97731,OR,Beaver Marsh, ,100350 Highway 97, ,BVM,"Beaver Marsh, OR", , ,-121.803202890857,43.1345774001832
107,-122.78217,45.510223,Curbside Bus Stop only (no shelter),2018-09-27T07:04:41,BUS,97225,OR,Beaverton, ,10470 Southwest Barnes Road, ,BVT,"Beaverton, OR", , ,-122.782184496175,45.5102284537954
108,-76.6943,39.192362,Station Building (with waiting room),2018-05-26T07:04:17,TRAIN,21240,MD,Baltimore, ,7 Amtrak Way, ,BWI,"BWI Marshall Airport, MD", ,"Baltimore,bwi airport",-76.6943022058441,39.1923698574059
109,-84.551799,41.480319,Station Building (with waiting room),2017-11-06T07:04:34,TRAIN,43506,OH,Bryan, ,Paige and Lynn Street, ,BYN,"Bryan, OH", , ,-84.5518037939923,41.4803269479015
110,-80.62519,34.248157,Station Building (with waiting room),2017-11-06T07:04:34,TRAIN,29020,SC,Camden, ,1060 West Dekalb Street, ,CAM,"Camden, SC", , ,-80.625193126039,34.2481636776695
111,-71.126573,43.978298,Curbside Bus Stop only (no shelter),2018-09-27T07:04:41,BUS,03818,NH,Conway, ,13 West Main Street, ,CAY,"Conway, NH", , ,-71.1265737111908,43.9783069722728
112,-106.980905,38.870357,Curbside Bus Stop only (no shelter),2022-09-02T07:04:42,BUS,81224,CO,Crested Butte, ,306 6th Street, ,CBC,"Crested Butte, CO", , ,-106.980915459951,38.8703631634931
113,-123.961842,45.889496,Curbside Bus Stop only (no shelter),2018-09-27T07:04:41,BUS,97110,OR,Cannon Beach, ,1170 South Hemlock Street, ,CBO,"Cannon Beach, OR", , ,-123.961856755401,45.8895013519667
114,-97.382333,32.349743,Platform with Shelter,2019-04-26T07:03:15,TRAIN,76031,TX,Cleburne, ,206 North Border Street, ,CBR,"Cleburne, TX", , ,-97.382340646271,32.3497486306683
115,-89.012609,43.340611,Station Building (with waiting room),2017-11-06T07:04:34,TRAIN,53925,WI,Columbus, ,359 North Ludington Street, ,CBS,"Columbus, WI", , ,-89.0126153119157,43.340619017281
116,-124.217366,43.367107,Curbside Bus Stop only (no shelter),2023-09-21T07:00:00,BUS,97420,OR,Coos Bay, ,525 Anderson Avenue, ,CBY,"Coos Bay, OR", , ,-124.217380296673,43.3671121862355
117,-116.798713,33.921492,Curbside Bus Stop only (no shelter),2019-01-12T07:03:23,BUS,92230,CA,Cabazon, ,49500 Seminole Drive, ,CBZ,"Cabazon, CA", , ,-116.798724929001,33.9214969225783
118,-76.048392,38.561752,Curbside Bus Stop only (no shelter),2018-09-27T07:04:41,BUS,21613,MD,Cambridge, ,100 Heron Boulevard, ,CDE,"Cambridge, MD", , ,-76.0483939665266,38.5617597532883
119,-89.216325,37.724581,Station Building (with waiting room),2025-04-26T07:03:51,TRAIN,62901,IL,Carbondale, ,401 South Illinois Avenue, ,CDL,"Carbondale, IL", , ,-89.2163308386253,37.7245880250551
120,-69.078634,44.199095,Curbside Bus Stop only (no shelter),2018-09-26T07:04:43,BUS,04856,ME,Rockport, ,20 Commercial Street, ,CDN,"Camden-Rockport, ME", , ,-69.0786340388529,44.1991040763764
121,-85.570486,43.219603,Curbside Bus Stop only (no shelter),2022-08-15T07:04:38,BUS,49319,MI,Cedar Springs, ,4010 17 Mile Road, ,CDS,"Cedar Springs, MI", , ,-85.5704912699402,43.2196111956032
122,-89.136118,38.527531,Station Building (with waiting room),2018-09-28T07:04:40,TRAIN,62801,IL,Centralia, ,110 South Oak St., ,CEN,"Centralia, IL", , ,-89.1361238808287,38.5275381782335
123,-78.43533,41.021095,Station Building (with waiting room),2018-07-20T07:04:38,BUS,16830,PA,Clearfield, ,314 East Cherry Street, ,CFD,"Clearfield, PA", , ,-78.4353328736893,41.0211031456758
124,-117.365156,46.875679,Curbside Bus Stop only (no shelter),2018-09-27T07:04:41,BUS,99111,WA,Colfax, ,610 South Main St., ,CFX,"Colfax, WA", , ,-117.365169865558,46.8756850999689
125,-119.699676,37.261897,Curbside Bus Stop only (no shelter),2018-02-18T07:04:24,BUS,93614,CA,Coarsegold, ,35305 Highway 41, ,CGD,"Coarsegold, CA", , ,-119.699688733261,37.2619020933462
126,-84.476287,45.646723,Curbside Bus Stop only (no shelter),2018-09-27T07:04:42,BUS,49721,MI,Cheboygan, ,403 North Huron Street, ,CHB,"Cheboygan, MI", , ,-84.4762921990317,45.6467316546454
127,-87.641015,41.878992,Station Building (with waiting room),2023-07-30T07:00:00,TRAIN,60606,IL,Chicago, ,255 South Clinton Street,Union Station,CHI,"Chicago, IL",Union Station,Union Station,-87.6410207527603,41.8789998534375
128,-85.257941,45.318448,Station Building (with waiting room),2018-09-27T07:04:42,BUS,49720,MI,Charlevoix, ,103 Bridge Park Drive, ,CHL,"Charlevoix, MI", , ,-85.2579464042382,45.3184565577332
129,-88.241366,40.115843,Station Building (with waiting room),2018-09-14T07:04:42,TRAIN,61820,IL,Champaign, ,45 East University Avenue, ,CHM,"Champaign-Urbana, IL", ,Urbana,-88.2413717615887,40.1158505122715
130,-121.883152,42.535691,Curbside Bus Stop only (no shelter),2021-06-23T07:04:14,BUS,97624,OR,Chiloquin, ,34333 Highway 97, ,CHN,"Chiloquin, OR", ,"Kla-Mo-Ya Casino,Kla Mo Ya Casino,Klamoya Casino",-121.883165801544,42.5356963514372
131,-91.427794,44.883096,Curbside Bus Stop only (no shelter),2018-09-28T07:04:41,BUS,54729,WI,Chippewa Falls, ,2750 120th Street, ,CHP,"Chippewa Falls, WI", , ,-91.4278012086899,44.8831041046143
132,-79.998048,32.875473,Station Building (with waiting room),2019-04-27T07:03:15,TRAIN,29405,SC,North Charleston,North Charleston Transit Center,4565 Gaynor Avenue, ,CHS,"Charleston, SC", , ,-79.9980508735681,32.8754793947327
133,-81.638494,38.346368,Station Building (with waiting room),2018-09-14T07:04:42,TRAIN,25314,WV,Charleston, ,350 MacCorkle Avenue - Southeast, ,CHW,"Charleston, WV", , ,-81.6384976704289,38.3463754924202
134,-121.845861,39.723259,Platform only (no shelter),2018-09-14T07:04:42,TRAIN,95928,CA,Chico, ,450 Orange Street, ,CIC,"Chico, CA", , ,-121.845874372429,39.7232641454441
135,-84.537061,39.109927,Station Building (with waiting room),2018-12-13T07:03:25,TRAIN,45203,OH,Cincinnati, ,1301 Western Avenue,Union Terminal,CIN,"Cincinnati, OH",Union Terminal,Union Terminal,-84.5370655923683,39.1099345113891
136,-72.377644,43.36833,Platform with Shelter,2017-11-06T07:04:37,TRAIN,03743,NH,Claremont, ,Plains Road and Maple Avenue, ,CLA,"Claremont, NH", , ,-72.3776450869899,43.3683388180636
137,-81.04049,33.994297,Station Building (with waiting room),2017-11-06T07:04:38,TRAIN,29201,SC,Columbia, ,850 Pulaski Street, ,CLB,"Columbia, SC", , ,-81.0404932362942,33.9943036079373
138,-85.389748,44.270402,Curbside Bus Stop only (no shelter),2018-09-27T07:04:42,BUS,49601,MI,Cadillac, ,951 Casa Road, ,CLC,"Cadillac, MI", , ,-85.3897533267765,44.2704103809453
139,-81.696172,41.505787,Station Building (with waiting room),2017-11-06T07:04:38,TRAIN,44114,OH,Cleveland, ,200 Cleveland Memorial Shoreway, ,CLE,"Cleveland, OH", , ,-81.6961759256405,41.5057950920571
140,-79.827363,37.814521,Station Building (with waiting room),2018-09-14T07:04:43,TRAIN,24422,VA,Clifton Forge, ,307 East Ridgeway Street, ,CLF,"Clifton Forge, VA", , ,-79.8273660872419,37.8145284594741
141,-117.716857,34.094469,Platform with Shelter,2018-09-21T07:04:42,BUS,91711,CA,Claremont, ,200 West First Street, ,CLM,"Claremont, CA", , ,-117.716869101882,34.0944738902025
142,-72.52929,41.280743,Station Building (with waiting room),2024-08-22T10:54:58,TRAIN,06413,CT,Clinton, ,10 John Street Extension, ,CLN,"Clinton, CT", , ,-72.5292910070324,41.2807514179053
143,-77.993421,38.47236,Station Building (with waiting room),2017-11-06T07:04:38,TRAIN,22701,VA,Culpeper, ,111 South Commerce Street, ,CLP,"Culpeper, VA", , ,-77.9934235651805,38.4723676633624
144,-84.767465,43.840968,Curbside Bus Stop only (no shelter),2018-09-27T07:04:42,BUS,48617,MI,Clare, ,10197 South Clare Avenue, ,CLR,"Clare, MI", , ,-84.7674700895253,43.8409763446824
145,-80.822812,35.241403,Station Building (with waiting room),2017-11-06T07:04:38,TRAIN,28206,NC,Charlotte, ,1914 North Tryon Street, ,CLT,"Charlotte, NC", , ,-80.822815236446,35.2414098849709
146,-123.011847,38.79811,Curbside Bus Stop only (no shelter),2018-09-21T07:04:42,BUS,95425,CA,Cloverdale, ,501 Asti Road, ,CLV,"Cloverdale, CA", , ,-123.011860427298,38.7981149809285
147,-119.034114,34.215933,Platform only (no shelter),2017-11-06T07:04:39,TRAIN,93010,CA,Camarillo, ,30 Lewis Road, ,CML,"Camarillo, CA", , ,-119.034126331996,34.2159378284983
148,-121.781594,43.216784,Platform with Shelter,2018-09-14T07:04:43,TRAIN,97731,OR,Chemult, ,Palmer/Kranz Street and Depot Street, ,CMO,"Chemult, OR", , ,-121.78160790167,43.2167894074792
149,-119.385865,35.864338,Platform only (no shelter),2022-01-19T07:04:10,TRAIN,93219,CA,Allensworth, ,4011 Grant Drive, ,CNL,"Col Allensworth State Park, CA", ,"Allensworth,Colonel Allensworth,cnl",-119.385877537656,35.8643429780603
150,-73.171337,43.613382,Station Building (with waiting room),2017-11-06T07:04:39,TRAIN,05735,VT,Castleton, ,266 Main Street, ,CNV,"Castleton, VT", , ,-73.1713383645138,43.6133908345939
151,-119.55705,36.098516,Station Building (with waiting room),2018-09-14T07:04:43,TRAIN,93212,CA,Corcoran, ,1099 Otis Avenue, ,COC,"Corcoran, CA", , ,-119.557062588578,36.0985209903093
152,-85.13338,39.645969,Platform with Shelter,2017-11-06T07:04:39,TRAIN,47331,IN,Connersville, ,1012 Eastern Avenue, ,COI,"Connersville, IN", , ,-85.1333848112845,39.6459765836846
153,-75.820929,39.985688,Platform with Shelter,2024-07-20T07:00:00,TRAIN,19320,PA,Coatesville, ,Third Avenue and Fleetwood Street, ,COT,"Coatesville, PA", , ,-75.8209309812079,39.9856960476924
154,-79.592813,40.020282,Platform with Shelter,2017-11-06T07:04:40,TRAIN,15425,PA,Connellsville, ,North Water Street & West Peach Street, ,COV,"Connellsville, PA", , ,-79.592816162391,40.0202899055827
155,-120.953075,39.099172,Station Building (with waiting room),2018-09-14T07:04:43,TRAIN,95713,CA,Colfax, ,99 Railroad Street, ,COX,"Colfax, CA", , ,-120.95308815151,39.0991771653127
156,-120.998594,38.658499,Curbside Bus Stop only (no shelter),2021-06-23T07:04:14,BUS,95682,CA,Cameron Park, ,3952 Cambridge Rd, ,CPC,"Cameron Park, CA", ,"Cambridge Road,Cambridge Rd.",-120.998607102988,38.6585041242513
157,-119.522975,34.39678,Platform with Shelter,2018-09-14T07:04:43,TRAIN,93013,CA,Carpinteria, ,475 Linden Avenue, ,CPN,"Carpinteria, CA", , ,-119.522987426421,34.3967848194129
158,-124.193475,41.752373,Curbside Bus Stop only (no shelter),2018-09-21T07:04:42,BUS,95531,CA,Crescent City, ,1001 Front Street   , ,CRC,"Crescent City, CA", , ,-124.193489019583,41.7523780899771
159,-86.899187,40.044705,Platform with Shelter,2017-11-06T07:04:40,TRAIN,47933,IN,Crawfordsville, ,400 North Green Street, ,CRF,"Crawfordsville, IN", , ,-86.8991923648336,40.0447125689462
160,-75.041824,39.928946,Station Building (with waiting room),2018-09-27T07:04:43,TRAIN,08002,NJ,Cherry Hill, ,Cornell Avenue & West Marlton Pike, ,CRH,"Cherry Hill, NJ", , ,-75.0418257312471,39.928954064988
161,-121.908797,36.539033,Curbside Bus Stop only (no shelter),2018-09-21T07:04:42,BUS,93923,CA,Carmel, ,3645 Rio Road, ,CRM,"Carmel, CA", , ,-121.90881000257,36.5390378745844
162,-94.361617,41.05692,Station Building (with waiting room),2021-01-20T07:04:17,TRAIN,50801,IA,Creston, ,116 West Adams Street, ,CRN,"Creston, IA", , ,-94.3616245748648,41.0569273196403
163,-73.882394,41.189903,Station Building (with waiting room),2017-11-06T07:04:41,TRAIN,10520,NY,Croton-on-Hudson, ,4 Veteran's Plaza and 1 Croton Point Avenue, ,CRT,"Croton-Harmon, NY", , ,-73.8823954384901,41.1899113536244
164,-89.889276,39.279295,Station Building (with waiting room),2017-11-06T07:04:41,TRAIN,62626,IL,Carlinville, ,128 Alton Road, ,CRV,"Carlinville, IL", , ,-89.889282157987,39.279302275448
165,-82.832501,34.691115,Station Building (with waiting room),2017-11-06T07:04:41,TRAIN,29631,SC,Clemson, ,1105 Tiger Boulevard, ,CSN,"Clemson, SC", , ,-82.8325048011913,34.6911216933044
166,-121.695659,43.462975,Curbside Bus Stop only (no shelter),2021-07-15T07:04:06,BUS,97733,OR,Crescent, ,136620 Highway 97, ,CSO,"Crescent, OR", , ,-121.695672931686,43.4629804324221
167,-122.953062,46.71747,Station Building (with waiting room),2017-11-06T07:04:41,TRAIN,98531,WA,Centralia, ,210 Railroad Avenue, ,CTL,"Centralia, WA", , ,-122.953076784349,46.7174755021997
168,-75.170827,44.594198,Curbside Bus Stop only (no shelter),2019-02-15T07:03:16,BUS,13617,NY,Canton, ,21 Miner Street,Downtown,CTO,"Canton, NY",Downtown, ,-75.1708290962254,44.5942069332609
169,-75.184956,44.603306,Curbside Bus Stop only (no shelter),2018-06-22T07:04:35,BUS,13617,NY,Canton, ,34 Cornell Drive,State University of New York,CTS,"Canton, NY",State University of New York, ,-75.1849581017462,44.6033149346482
170,-78.730438,39.650452,Curbside Bus Stop only (no shelter),2018-09-27T07:04:43,BUS,21502,MD,Cumberland, ,12401 Willowbrook Road SE,Allegany College of Maryland,CUA,"Cumberland, MD",Allegany College of Maryland, ,-78.7304408692963,39.6504598693416
171,-78.758,39.650628,Station Building (with waiting room),2019-02-14T07:03:19,TRAIN,21502,MD,Cumberland, ,201 East Harrison Street,Amtrak Station,CUM,"Cumberland, MD",Amtrak Station, ,-78.7580028782323,39.6506358680422
172,-112.331584,48.638364,Station Building (with waiting room),2018-09-14T07:04:43,TRAIN,59427,MT,Cut Bank, ,101 BNSF Industrial Site, ,CUT,"Cut Bank, MT", , ,-112.3315972575,48.6383707559088
173,-123.263452,44.564907,Station Building (with waiting room),2022-03-09T07:04:17,BUS,97330,OR,Corvallis, ,508 Southwest Monroe Ave,Downtown Transit Center,CVI,"Corvallis, OR",Downtown Transit Center, ,-123.263466379682,44.5649123498479
174,-123.647,42.163002,Curbside Bus Stop only (no shelter),2018-09-27T07:04:43,BUS,97523,OR,Cave Junction, ,406 Redwood Coast Highway, ,CVJ,"Cave Junction, OR", , ,-123.647014006389,42.1630071657726
175,-123.272751,44.564411,Curbside Bus Stop only (no shelter),2022-03-09T07:04:17,BUS,97331,OR,Corvallis, ,Southwest Jefferson Way,Oregon State University,CVO,"Corvallis, OR",Oregon State University, ,-123.272765381075,44.5644163489195
176,-78.491684,38.031484,Station Building (with waiting room),2017-11-06T07:04:42,TRAIN,22903,VA,Charlottesville, ,810 West Main Street, ,CVS,"Charlottesville, VA", , ,-78.4916866923718,38.0314915550821
177,-73.165387,44.594999,Curbside Bus Stop only (no shelter),2021-06-24T07:04:17,BUS,05446,VT,Colchester, ,Highway 7 at Brentwood Drive, ,CVT,"Colchester, VT", , ,-73.1653884325182,44.5950080111436
178,-74.952187,40.071663,Platform with Shelter,2018-09-14T07:04:44,TRAIN,19020,PA,Cornwells Heights, ,700 Station Avenue, ,CWH,"Cornwells Heights, PA", , ,-74.9521887114503,40.0716710963064
179,-118.599417,34.253205,Platform with Shelter,2017-11-06T07:04:43,TRAIN,91311,CA,Chatsworth, ,10040 Old Depot Plaza Road, ,CWT,"Chatsworth, CA", , ,-118.599429263629,34.2532098578127
180,-78.782246,35.788294,Station Building (with waiting room),2017-11-06T07:04:43,TRAIN,27513,NC,Cary, ,211 North Academy Street, ,CYN,"Cary, NC", , ,-78.7822486529908,35.788301075175
181,-96.804121,32.778637,Station Building (with waiting room),2019-02-14T07:03:19,BUS,75202,TX,Dallas, ,205 South Lamar Street,Greyhound Station,DAG,"Dallas, TX",Greyhound Station, ,-96.8041285259917,32.778642736614
182,-96.807235,32.776094,Station Building (with waiting room),2019-05-10T07:03:12,TRAIN,75202,TX,Dallas, ,400 South Houston Street,Eddie Bernice Johnson Union Sta,DAL,"Dallas, TX",Eddie Bernice Johnson Union Sta,Union Station,-96.8072425269409,32.7760997363733
183,-69.531009,44.032398,Curbside Bus Stop only (no shelter),2018-09-26T07:04:43,BUS,04543,ME,Damariscotta, ,167 Main Street, ,DAM,"Damariscotta, ME", , ,-69.5310091812574,44.0324070323404
184,-79.383968,36.58409,Station Building (with waiting room),2017-11-06T07:04:43,TRAIN,24541,VA,Danville, ,677 Craghead Street, ,DAN,"Danville, VA", , ,-79.3839708790149,36.5840972218533
185,-84.27806,39.81762,Station Building (with waiting room),2021-09-30T07:04:21,BUS,45426,OH,Trotwood, ,5136 Salem Avenue, ,DAT,"Dayton-Trotwood, OH", ,Trotwood,-84.2780645711226,39.8176276569515
186,-121.737707,38.543562,Station Building (with waiting room),2018-09-14T07:04:44,TRAIN,95616,CA,Davis, ,840 Second Street, ,DAV,"Davis, CA", , ,-121.737720203611,38.543567058203
187,-78.72441,41.111736,Station Building (with waiting room),2018-07-19T07:04:40,BUS,15801,PA,Du Bois, ,4900 Rockton Road, ,DBI,"Du Bois, PA", , ,-78.7244129707206,41.1117441505843
188,-121.897697,37.702833,Station Building (with waiting room),2018-09-21T07:04:43,BUS,94588,CA,Pleasanton, ,5801 Owens Drive, ,DBP,"Dublin-Pleasanton, CA", ,Pleasanton,-121.897710127865,37.7028379759513
189,-122.887334,47.987795,Curbside Bus Stop only (no shelter),2019-01-11T07:03:27,BUS,98368,WA,Discovery Bay, ,282624 U.S. Highway 101, ,DBY,"Discovery Bay, WA", , ,-122.887349074423,47.9878005746338
190,-82.18744,28.367854,Platform with Shelter,2024-06-08T07:05:50,BUS,33525,FL,Dade City, ,14418 5th Street, ,DDE,"Dade City, FL", , ,-82.1874433372168,28.3678592799565
191,-100.016961,37.752306,Station Building (with waiting room),2023-03-20T12:03:27,TRAIN,67801,KS,Dodge City, ,201 East Wyatt Earp Boulevard, ,DDG,"Dodge City, KS", , ,-100.016969709969,37.7523124420951
192,-107.754346,32.27177,Platform with Shelter,2024-06-08T07:05:50,TRAIN,88030,NM,Deming, ,400 East Railroad Avenue, ,DEM,"Deming, NM", , ,-107.754356055003,32.2717751577183
193,-104.999929,39.752959,Station Building (with waiting room),2018-12-13T07:03:25,TRAIN,80202,CO,Denver, ,1701 Wynkoop Street,Union Station,DEN,"Denver, CO",Union Station,Union Station,-104.999939112246,39.7529654202235
194,-83.235311,42.307167,Station Building (with waiting room),2018-09-14T07:04:44,TRAIN,48124,MI,Dearborn, ,21201 Michigan Avenue, ,DER,"Dearborn, MI", , ,-83.2353154687614,42.3071751611972
195,-83.072397,42.368097,Station Building (with waiting room),2017-11-06T07:04:44,TRAIN,48202,MI,Detroit, ,11 West Baltimore Avenue, ,DET,"Detroit, MI", , ,-83.0724014240531,42.3681051803025
196,-80.122147,26.317069,Station Building (with waiting room),2017-11-06T07:04:44,TRAIN,33442,FL,Deerfield Beach, ,1300 West Hillsboro Boulevard, ,DFB,"Deerfield Beach, FL", , ,-80.1221496742504,26.3170738249829
197,-70.936013,43.139328,Station Building (with waiting room),2022-08-18T07:04:45,TRAIN,03824,NH,Durham, ,3 Depot Road,University of New Hampshire,DHM,"Durham, NH",University of New Hampshire, ,-70.9360135958971,43.1393368239316
198,-79.372301,34.417647,Station Building (with waiting room),2017-11-06T07:04:45,TRAIN,29536,SC,Dillon, ,100 North Railroad Avenue, ,DIL,"Dillon, SC", , ,-79.3723037604291,34.4176537579621
199,-75.274378,44.504682,Curbside Bus Stop only (no shelter),2018-06-22T07:04:35,BUS,13630,NY,De Kalb Junction, ,4329 U.S. Highway 11, ,DKJ,"De Kalb Junction, NY", , ,-75.2743801232545,44.5046909136079
200,-80.091154,26.454021,Platform with Shelter,2017-11-06T07:04:45,TRAIN,33444,FL,Delray Beach, ,345 South Congress Avenue, ,DLB,"Delray Beach, FL", , ,-80.0911566686642,26.4540258605199
201,-81.352477,29.017849,Station Building (with waiting room),2018-09-14T07:04:45,TRAIN,32720,FL,DeLand, ,2491 Old New York Avenue, ,DLD,"DeLand, FL", , ,-81.3524801170507,29.0178544581846
202,-95.845998,46.819692,Station Building (with waiting room),2017-11-06T07:04:45,TRAIN,56501,MN,Detroit Lakes, ,116 Pioneer Street, ,DLK,"Detroit Lakes, MN", , ,-95.8460067609715,46.8197000591244
203,-79.580374,40.399029,Curbside Bus Stop only (no shelter),2018-07-19T07:04:40,BUS,15626,PA,Delmont, ,6583 U.S. Highway 22, ,DLT,"Delmont, PA", , ,-79.5803771852619,40.399036979289
204,-78.906299,35.997347,Station Building (with waiting room),2018-09-15T07:04:40,TRAIN,27701,NC,Durham, ,601 West Main Street, ,DNC,"Durham, NC", , ,-78.9063017015773,35.9973541153206
205,-81.143635,33.326184,Station Building (with waiting room),2017-11-06T07:04:45,TRAIN,29042,SC,Denmark, ,200 West Baruch Street, ,DNK,"Denmark, SC", , ,-81.143638233798,33.3261904570707
206,-86.109041,41.980941,Station Building (with waiting room),2017-11-06T07:04:45,TRAIN,49047,MI,Dowagiac, ,200 Depot Drive, ,DOA,"Dowagiac, MI", , ,-86.1090463088896,41.9809489546474
207,-70.878361,43.197968,Station Building (with waiting room),2017-11-06T07:04:46,TRAIN,03820,NH,Dover, ,33 Chestnut Street, ,DOV,"Dover, NH", , ,-70.878361580475,43.1979768364118
208,-75.710775,40.002193,Platform with Shelter,2017-11-06T07:04:46,TRAIN,19335,PA,Downingtown, ,159 Viaduct Avenue, ,DOW,"Downingtown, PA", , ,-75.7107769469716,40.0022010551884
209,-88.088426,44.451367,Curbside Bus Stop only (no shelter),2019-07-11T07:03:38,BUS,54415,WI,De Pere, ,100 Lawrence Dr,De Pere Park and Ride,DPE,"Green Bay, WI",De Pere Park and Ride, ,-88.0884321660275,44.4513752510609
210,-89.240254,38.012328,Station Building (with waiting room),2017-11-06T07:04:46,TRAIN,62832,IL,Du Quoin, ,20 North Chestnut Street, ,DQN,"Du Quoin, IL", , ,-89.2402598683129,38.0123350775077
211,-83.98232,42.909495,Station Building (with waiting room),2017-11-06T07:04:46,TRAIN,48429,MI,Durand, ,200 South Railroad Street, ,DRD,"Durand, MI", , ,-83.9823247544436,42.909503227985
212,-100.902662,29.362202,Platform only (no shelter),2021-01-22T07:04:20,TRAIN,78840,TX,Del Rio, ,100 North Main Street, ,DRT,"Del Rio, TX", , ,-100.902670352304,29.3622069296119
213,-118.357319,43.778199,Curbside Bus Stop only (no shelter),2018-06-15T07:04:18,BUS,97911,OR,Drewsey, ,178 U.S. Highway 20, ,DRW,"Drewsey, OR", , ,-118.357332431277,43.7782047696401
214,-92.101209,46.783872,Station Building (with waiting room),2019-02-14T07:03:19,BUS,55802,MN,Duluth, ,228 West Michigan Street,Transportation Center,DUL,"Duluth, MN",Transportation Center, ,-92.1012166749824,46.7838803335171
215,-122.270587,41.211127,Station Building (with waiting room),2018-09-14T07:04:45,TRAIN,96025,CA,Dunsmuir, ,5750 Sacramento Avenue, ,DUN,"Dunsmuir, CA", , ,-122.270600650488,41.211132222452
216,-92.086097,46.817841,Curbside Bus Stop only (no shelter),2018-09-27T07:04:45,BUS,55812,MN,Duluth, ,1120 Kirby Drive,University of Minnesota,DUU,"Duluth, MN",University of Minnesota, ,-92.0861046753855,46.8178493393766
217,-87.540521,40.122053,Curbside Bus Stop only (no shelter),2018-09-26T07:04:44,BUS,61834,IL,Danville, ,379 Lynch Road, ,DVI,"Danville, IL", , ,-87.5405265587941,40.1220605501461
218,-98.861372,48.110468,Station Building (with waiting room),2017-11-06T07:04:47,TRAIN,58301,ND,Devils Lake, ,Railroad Avenue and Third Street, ,DVL,"Devils Lake, ND", , ,-98.8613818278891,48.1104759768304
219,-90.57779,41.52075,Station Building (with waiting room),2020-05-06T07:10:36,BUS,52801,IA,Davenport, ,304 W. River Drive, ,DVP,"Davenport, IA", , ,-90.5777965686604,41.5207576246748
220,-88.430707,41.089854,Station Building (with waiting room),2017-11-06T07:04:47,TRAIN,60420,IL,Dwight, ,401 South Columbia Street, ,DWT,"Dwight, IL", , ,-88.4307129070592,41.0898616734364
221,-81.008922,29.228923,Curbside Bus Stop only (no shelter),2018-09-26T07:04:44,BUS,32118,FL,Daytona Beach, ,100 North Atlantic Avenue, ,DYA,"Daytona Beach, FL", , ,-81.0089250241603,29.2289285181417
222,-87.518076,41.515413,Platform with Shelter,2017-11-06T07:04:47,TRAIN,46311,IN,Dyer, ,913 Sheffield Avenue, ,DYE,"Dyer, IN", , ,-87.5180816816015,41.5154207973809
223,-78.726152,40.485126,Curbside Bus Stop only (no shelter),2018-09-27T07:04:45,BUS,15931,PA,Ebensburg, ,202 West High Street, ,EBN,"Ebensburg, PA", , ,-78.7261549262274,40.4851340311635
224,-122.384141,47.811081,Station Building (with waiting room),2017-11-06T07:04:48,TRAIN,98020,WA,Edmonds, ,211 Railroad Avenue, ,EDM,"Edmonds, WA", , ,-122.38415595163,47.8110866214587
225,-88.54711,39.117059,Station Building (with waiting room),2017-11-06T07:04:48,TRAIN,62401,IL,Effingham, ,401 West National Avenue, ,EFG,"Effingham, IL", , ,-88.547115762549,39.1170663159367
226,-74.64802,39.526494,Platform with Shelter,2018-09-27T07:04:45,TRAIN,08215,NJ,Egg Harbor City, ,South Philadelphia Avenue & Atlantic Avenue, ,EGH,"Egg Harbor City, NJ", , ,-74.6480215825971,39.5265019984311
227,-124.16933,40.800739,Curbside Bus Stop only (no shelter),2024-02-14T07:10:19,BUS,95501,CA,Eureka, ,6th and C Streets, ,EKA,"Eureka, CA", , ,-124.169343869611,40.800744029963
228,-121.480807,38.424746,Curbside Bus Stop only (no shelter),2018-09-21T07:04:44,BUS,95758,CA,Elk Grove, ,9180 Harbour Point Drive, ,EKG,"Elk Grove, CA", , ,-121.480820149576,38.4247510677285
229,-85.971848,41.680748,Station Building (with waiting room),2017-11-06T07:04:48,TRAIN,46515,IN,Elkhart, ,131 Tyler Avenue, ,EKH,"Elkhart, IN", , ,-85.9718532388246,41.6807559096128
230,-115.75053,40.836483,Platform with Shelter,2017-11-06T07:04:48,TRAIN,89801,NV,Elko,1301 Sharps Access Road (Train 6),1300 Water Street (Train 5), ,ELK,"Elko, NV", , ,-115.750542494204,40.8364887375343
231,-106.495644,31.757346,Station Building (with waiting room),2018-09-14T07:04:45,TRAIN,79901,TX,El Paso, ,700 West San Francisco Avenue,Union Depot,ELP,"El Paso, TX",Union Depot,Union Depot,-106.495653752275,31.7573511321423
232,-123.615101,45.886845,Curbside Bus Stop only (no shelter),2018-09-29T07:04:40,BUS,97138,OR,Elsie, ,42362 US Highway 26, ,ELS,"Elsie, OR", , ,-123.615115702914,45.8868503879666
233,-76.612234,40.147028,Station Building (with waiting room),2017-11-06T07:04:49,TRAIN,17022,PA,Elizabethtown, ,50 South Wilson Avenue , ,ELT,"Elizabethtown, PA", , ,-76.6122362402625,40.1470360502791
234,-82.096685,41.370033,Station Building (with waiting room),2024-11-13T07:07:58,TRAIN,44035,OH,Elyria, ,410 East River Road, ,ELY,"Elyria, OH", , ,-82.0966890377854,41.3700410482501
235,-87.089868,45.779858,Curbside Bus Stop only (no shelter),2018-09-27T07:04:45,BUS,49829,MI,Escanaba, ,2901 27th Avenue North, ,EMI,"Escanaba, MI", , ,-87.0898740257785,45.7798665198096
236,-122.291615,37.840474,Station Building (with waiting room),2017-11-06T07:04:49,TRAIN,94608,CA,Emeryville, ,5885 Horton Street, ,EMY,"Emeryville, CA", , ,-122.291628203554,37.8404789588097
237,-119.549267,47.320948,Platform with Shelter,2018-09-29T07:04:40,TRAIN,98823,WA,Ephrata, ,90 Alder Street NW, ,EPH,"Ephrata, WA", , ,-119.549281360027,47.3209539010124
238,-119.765742,37.678454,Curbside Bus Stop only (no shelter),2018-09-21T07:04:44,BUS,95318,CA,El Portal, ,11136 Highway 140, ,EPL,"El Portal, CA", , ,-119.765754790046,37.6784591279289
239,-80.082444,42.120847,Station Building (with waiting room),2017-11-06T07:04:49,TRAIN,16501,PA,Erie, ,125 West 14th Street, ,ERI,"Erie, PA", , ,-80.0824474750352,42.120855278447
240,-118.383533,33.906609,Curbside Bus Stop only (no shelter),2018-09-21T07:04:44,BUS,90245,CA,El Segundo, ,700 South Douglas Street, ,ESG,"El Segundo, CA", , ,-118.383545198504,33.9066138317919
241,-113.610942,48.275543,Platform only (no shelter),2018-09-14T07:04:45,TRAIN,59916,MT,Essex, ,290 Izaak Walton Inn Road, ,ESM,"Essex, MT", , ,-113.610955443431,48.2755495940782
242,-76.064904,38.811393,Curbside Bus Stop only (no shelter),2018-09-27T07:04:46,BUS,21601,MD,Easton, ,29137 Newman Road, ,ESN,"Easton, MD", , ,-76.0649059860023,38.8114008033515
243,-73.110277,44.492466,Station Building (with waiting room),2022-07-21T07:04:25,TRAIN,05452,VT,Essex Junction, ,29 Railroad Avenue,Amtrak Station,ESX,"Essex Junction, VT",Amtrak Station,Burlington,-73.110278406805,44.4924749949535
244,-123.092852,44.047504,Curbside Bus Stop only (no shelter),2024-04-02T07:06:59,BUS,97401,OR,Eugene, ,1100 Willamette Street,Chase Bank,EUB,"Eugene-Springfield, OR",Chase Bank,Springfield,-123.09286625508,44.047509335953
245,-91.506339,44.796558,Curbside Bus Stop only (no shelter),2018-09-28T07:04:41,BUS,54702,WI,Eau Claire, ,642 University Drive,University of Wisconsin,EUC,"Eau Claire, WI",University of Wisconsin, ,-91.5063462194305,44.7965660860785
246,-123.092361,44.055043,Station Building (with waiting room),2019-04-17T07:03:16,TRAIN,97401,OR,Eugene, ,433 Willamette Street,Amtrak Station,EUG,"Eugene, OR",Amtrak Station, ,-123.092375256607,44.0550483360339
247,-123.06875,44.045556,Curbside Bus Stop only (no shelter),2024-09-16T07:00:00,BUS,97403,OR,Eugene, ,1615 East 13th Ave,University of Oregon,EUO,"Eugene, OR",University of Oregon, ,-123.068764251191,44.0455613379738
248,-75.799444,44.08427,Curbside Bus Stop only (no shelter),2018-06-22T07:04:35,BUS,13637,NY,Evans Mills, ,8650 Leray Street, ,EVM,"Evans Mills, NY", , ,-75.7994462620185,44.084278817689
249,-122.197858,47.975401,Station Building (with waiting room),2017-11-06T07:04:51,TRAIN,98201,WA,Everett, ,3201 Smith Avenue, ,EVR,"Everett, WA", , ,-122.197872961542,47.9754066503992
250,-110.957598,41.264175,Curbside Bus Stop only (no shelter),2018-09-28T07:04:41,BUS,82930,WY,Evanston, ,106 North 3rd Street, ,EVY,"Evanston, WY", , ,-110.957609613377,41.2641811673809
251,-74.18229,40.696618,Station Building (with waiting room),2018-09-14T07:04:45,TRAIN,07114,NJ,Newark, ,3 Brewster Road,Liberty International Airport,EWR,"Newark, NJ",Liberty International Airport,"Liberty International,Liberty Airport,Liberty Intl",-74.1822915039689,40.6966262470508
252,-70.9587,42.98102,Platform with Shelter,2018-09-14T07:04:46,TRAIN,03833,NH,Exeter, ,60 Lincoln Street, ,EXR,"Exeter, NH", , ,-70.9587005942117,42.9810287933397
253,-75.621713,40.019291,Station Building (with waiting room),2020-02-22T07:11:08,TRAIN,19341,PA,Exton, ,445 Walkertown Road, ,EXT,"Exton, PA", , ,-75.6217149199237,40.0192990616581
254,-96.785372,46.880982,Station Building (with waiting room),2017-11-06T07:04:51,TRAIN,58102,ND,Fargo, ,420 4th Street North, ,FAR,"Fargo, ND", , ,-96.7853810345584,46.8809899937259
255,-78.884788,35.054993,Station Building (with waiting room),2017-11-06T07:04:51,TRAIN,28301,NC,Fayetteville, ,472 Hay Street, ,FAY,"Fayetteville, NC", , ,-78.8847906455804,35.0549999141875
256,-77.457707,38.29808,Platform with Shelter,2022-12-07T07:06:53,TRAIN,22401,VA,Fredericksburg, ,425 Princess Anne Street, ,FBG,"Fredericksburg, VA", , ,-77.4577093890283,38.2980876484511
257,-104.996531,40.524231,Curbside Bus Stop only (no shelter),2018-09-26T07:04:44,BUS,80528,CO,Fort Collins, ,4308 East Harmony Road, ,FCC,"Fort Collins, CO", ,"Ft Collins,Ft. Collins,Collins",-104.996541204142,40.5242375255103
258,-88.46394,43.74882,Curbside Bus Stop only (no shelter),2024-07-04T07:06:01,BUS,54937,WI,Fond du Lac, ,191 W Rolling Meadows Dr, ,FDL,"Fond du Lac, WI", , ,-88.4639461968779,43.748828116559
259,-73.58055,43.269603,Platform only (no shelter),2018-09-14T07:04:46,TRAIN,12828,NY,Fort Edward, ,70 East Street, ,FED,"Fort Edward-Glens Falls, NY", ,"Ft Edward,Ft. Edward,Edward,Glens Falls, Glenns Falls,Hudson Falls",-73.5805514760308,43.2696117569076
260,-121.967926,38.285626,Station Building (with waiting room),2017-11-06T07:04:52,TRAIN,94533,CA,Fairfield, ,4921 Vanden Road, ,FFV,"Fairfield-Vacaville, CA", ,Vacaville,-121.967939207645,38.2856310197114
261,-111.638801,35.192292,Station Building (with waiting room),2018-12-13T07:03:26,BUS,86001,AZ,Flagstaff, ,880 East Butler Ave.,Greyhound Station,FGG,"Flagstaff, AZ",Greyhound Station, ,-111.638812073608,35.192297375621
262,-97.766812,31.141597,Curbside Bus Stop only (no shelter),2025-07-19T02:16:39,BUS,76544,TX,Fort Hood, ,"Building 18010, 48th Street", ,FHD,"Fort Hood, TX", ,"Ft Hood,Ft. Hood,Hood,Cavazos,Ft Cavazos,Ft. Cavazos",-97.7668196759091,31.1416023848564
263,-118.918319,34.396009,Curbside Bus Stop only (no shelter),2018-09-29T07:04:40,BUS,93015,CA,Fillmore, ,718 West Ventura Street, ,FIL,"Fillmore, CA", , ,-118.918331327832,34.3960138545358
264,-111.648871,35.197374,Station Building (with waiting room),2019-02-14T07:03:20,TRAIN,86001,AZ,Flagstaff, ,1 East Route 66,Amtrak Station,FLG,"Flagstaff, AZ",Amtrak Station, ,-111.648882075654,35.1973793757505
265,-83.651728,43.015425,Station Building (with waiting room),2017-11-06T07:04:53,TRAIN,48503,MI,Flint, ,1407 South Dort Highway, ,FLN,"Flint, MI", , ,-83.6517326628184,43.0154332639983
266,-79.757056,34.199157,Station Building (with waiting room),2017-11-06T07:04:53,TRAIN,29506,SC,Florence, ,805 East Day Street, ,FLO,"Florence, SC", , ,-79.7570588648118,34.1991636970212
267,-91.313529,40.629558,Station Building (with waiting room),2021-12-16T07:04:20,TRAIN,52627,IA,Fort Madison,Suite 1,810 10th Street ,Historic Santa Fe Station,FMD,"Fort Madison, IA",Historic Santa Fe Station,"Ft Madison,Ft. Madison,Madison",-91.3135356860096,40.6295654312599
268,-103.802818,40.247169,Station Building (with waiting room),2017-11-06T07:04:53,TRAIN,80701,CO,Fort Morgan, ,South Ensign Street and Main Street, ,FMG,"Fort Morgan, CO", ,"Ft Morgan,Ft. Morgan,Morgan",-103.802827890749,40.2471755719948
269,-122.007496,37.559093,Station Building (with waiting room),2019-02-14T07:03:20,TRAIN,94536,CA,Fremont, ,37260 Fremont Boulevard,Amtrak/ACE Station,FMT,"Fremont, CA",Amtrak/ACE Station, ,-122.007509128138,37.5590979558676
270,-119.782926,36.738457,Station Building (with waiting room),2018-09-29T07:04:41,TRAIN,93721,CA,Fresno, ,2650 Tulare Street, ,FNO,"Fresno, CA", , ,-119.782938690066,36.7384620377573
271,-71.420033,42.275993,Platform with Shelter,2018-09-14T07:04:46,TRAIN,01702,MA,Framingham, ,417 Waverly Street, ,FRA,"Framingham, MA", , ,-71.42003370429,42.2760016457296
272,-77.40558,39.411855,Station Building (with waiting room),2019-02-14T07:03:20,BUS,21704,MD,Frederick, ,100 South East Street,Transit Center/MARC Station,FRC,"Frederick, MD",Transit Center/MARC Station, ,-77.4055824419982,39.4118628746351
273,-70.102358,43.855035,Station Building (with waiting room),2017-11-06T07:04:54,TRAIN,04032,ME,Freeport, ,23 Depot Road, ,FRE,"Freeport, ME", , ,-70.1023583623106,43.8550439824125
274,-105.991608,39.225516,Curbside Bus Stop only (no shelter),2018-07-13T07:04:30,BUS,80421,CO,Fairplay, ,640 US Highway 285, ,FRP,"Fairplay, CO", , ,-105.991618278341,39.2255222795226
275,-77.382299,39.416261,Curbside Bus Stop only (no shelter),2018-09-27T07:04:47,BUS,21705,MD,Frederick, ,1341 Hughes Ford Road,Frederick Municipal Airport,FRR,"Frederick, MD",Frederick Municipal Airport, ,-77.3823014344987,39.416268875996
276,-121.92364,37.53915,Curbside Bus Stop only (no shelter),2018-09-29T07:04:41,BUS,94538,CA,Fremont, ,42801 Mission Blvd,VTA Transit Bus Stop,FRT,"Fremont, CA",VTA Transit Bus Stop, ,-121.923653113944,37.5391549602597
277,-78.933168,39.6489,Curbside Bus Stop only (no shelter),2018-09-27T07:04:47,BUS,21532,MD,Frostburg, ,101 Braddock Road,Frostburg State University,FSB,"Frostburg, MD",Frostburg State University, ,-78.9331709324612,39.648907860524
278,-119.635019,37.472699,Curbside Bus Stop only (no shelter),2018-02-18T07:04:25,BUS,93623,CA,Fish Camp, ,1122 Highway 41, ,FSH,"Fish Camp, CA", , ,-119.635031745984,37.4727041179695
279,-124.1156,44.160514,Curbside Bus Stop only (no shelter),2021-10-15T07:04:07,BUS,97439,OR,Florence, ,93100 Oregon Coast Highway,Carl G. Washburne State Park,FSP,"Florence, OR",Carl G. Washburne State Park,"Washburne State Park,Carl Washburne State Park",-124.115614428725,44.1605192421441
280,-124.146188,40.583672,Curbside Bus Stop only (no shelter),2018-09-29T07:04:41,BUS,95540,CA,Fortuna, ,719 South Fortuna Blvd, ,FTA,"Fortuna, CA", , ,-124.146201834181,40.5836770177755
281,-73.389681,43.853788,Platform with Shelter,2018-09-14T07:04:46,TRAIN,12883,NY,Ticonderoga, ,NYS Hwy 74 and Sandy Redoubt, ,FTC,"Ticonderoga, NY", , ,-73.3896824534671,43.8537968703653
282,-80.17,26.119256,Station Building (with waiting room),2017-11-06T07:04:55,TRAIN,33312,FL,Fort Lauderdale, ,200 Southwest 21st Terrace, ,FTL,"Fort Lauderdale, FL", ,"Ft Lauderdale,Ft. Lauderdale,Lauderdale",-80.170002683297,26.1192607745881
283,-81.81506,26.714124,Curbside Bus Stop only (no shelter),2025-04-18T07:04:42,BUS,33917,FL,Fort Myers, ,17308 Park 78 Drive, ,FTM,"North Fort Myers, FL", ,"Ft Myers,Ft. Myers,Myers",-81.8150631780497,26.7141288861648
284,-88.888772,36.525704,Station Building (with waiting room),2017-11-06T07:04:55,TRAIN,42041,KY,Fulton, ,21 Newton Road, ,FTN,"Fulton, KY", , ,-88.8887776577748,36.5257108125915
285,-97.326673,32.752563,Station Building (with waiting room),2023-02-01T07:07:22,TRAIN,76102,TX,Fort Worth, ,1001 Jones Street,Central Station,FTW,"Fort Worth, TX",Central Station,"Ft Worth,Ft. Worth,Worth",-97.3266806566695,32.752568708881
286,-117.922849,33.868969,Station Building (with waiting room),2018-09-14T07:04:46,TRAIN,92832,CA,Fullerton, ,120 East Santa Fe Avenue, ,FUL,"Fullerton, CA", , ,-117.922861118524,33.8689738537293
287,-121.967003,37.406778,Platform only (no shelter),2018-09-14T07:04:46,TRAIN,95054,CA,Santa Clara, ,5099 Stars and Stripes Drive,Great America,GAC,"Santa Clara, CA",Great America, ,-121.967016105147,37.4067829456858
288,-81.162366,35.269186,Station Building (with waiting room),2017-11-06T07:04:55,TRAIN,28054,NC,Gastonia, ,350 Hancock Street, ,GAS,"Gastonia, NC", , ,-81.1623693390622,35.269192878474
289,-90.364106,40.944678,Station Building (with waiting room),2017-11-06T07:04:56,TRAIN,61401,IL,Galesburg, ,225 South Seminary Street, ,GBB,"Galesburg, IL", , ,-90.364112448921,40.9446855399045
290,-78.003337,35.385675,Station Building (with waiting room),2018-09-27T07:04:47,BUS,27350,NC,Goldsboro, ,103 North Carolina Street, ,GBO,"Goldsboro, NC", , ,-78.0033393956621,35.3856820158925
291,-123.79523,40.097719,Curbside Bus Stop only (no shelter),2018-04-05T07:04:11,BUS,95542,CA,Garberville, ,924 Redwood Drive, ,GBV,"Garberville, CA", , ,-123.795243714254,40.0977240137726
292,-88.00276,44.517053,Platform with Shelter,2019-07-03T07:03:26,BUS,54302,WI,Green Bay, ,901 University Avenue,Transportation Center,GBY,"Green Bay, WI",Transportation Center, ,-88.0027661489442,44.5170612666408
293,-112.144648,36.05364,Curbside Bus Stop only (no shelter),2019-02-14T07:03:20,BUS,86023,AZ,Grand Canyon Village, ,202 Village Loop Drive,Maswik Lodge,GCB,"Grand Canyon Village, AZ",Maswik Lodge, ,-112.144659250942,36.0536454564474
294,-100.873256,37.964365,Station Building (with waiting room),2018-09-14T07:04:47,TRAIN,67846,KS,Garden City, ,100 North 7th Street, ,GCK,"Garden City, KS", , ,-100.873264940218,37.9643714246038
295,-118.258868,34.123706,Platform with Shelter,2018-09-14T07:04:47,TRAIN,91204,CA,Glendale, ,400 West Cerritos Avenue, ,GDL,"Glendale, CA", , ,-118.258880195987,34.1237108633353
296,-117.536887,47.626646,Curbside Bus Stop only (no shelter),2018-09-28T07:04:42,BUS,99224,WA,Spokane, ,9000 West Airport Drive,Spokane Airport,GEG,"Spokane, WA",Spokane Airport, ,-117.53690106702,47.6266521349393
297,-72.600765,42.585458,Station Building (with waiting room),2018-09-14T07:04:47,TRAIN,01301,MA,Greenfield, ,12 Olive Street, ,GFD,"Greenfield, MA", , ,-72.6007661094004,42.585466665012
298,-97.110835,47.917522,Station Building (with waiting room),2017-11-06T07:04:57,TRAIN,58201,ND,Grand Forks, ,5555 DeMers Avenue, ,GFK,"Grand Forks, ND", , ,-97.11084430646,47.9175300989506
299,-73.64486,43.308911,Curbside Bus Stop only (no shelter),2024-07-27T07:00:00,BUS,12801,NY,Glens Falls, ,2 Hudson Avenue, ,GFS,"Glens Falls, NY", ,"Glenns Falls,Hudson Falls",-73.6448614998099,43.3089197617135
300,-106.636188,48.194854,Station Building (with waiting room),2017-11-06T07:04:57,TRAIN,59230,MT,Glasgow, ,424 1st  Avenue South, ,GGW,"Glasgow, MT", , ,-106.636199855105,48.1948612839986
301,-123.911654,46.025188,Curbside Bus Stop only (no shelter),2019-06-19T07:03:23,BUS,97301,OR,Gearhart, ,3453 U.S. Highway 101 North,Dollar General Store,GHN,"Gearhart - Northbound, OR",Dollar General Store, ,-123.911668776996,46.0251933643256
302,-123.912012,46.025529,Curbside Bus Stop only (no shelter),2019-06-19T07:03:23,BUS,97301,OR,Gearhart, ,3518 U.S. Highway 101 North,Gearhart Bowl & Fultano's Pizza,GHT,"Gearhart - Southbound, OR",Gearhart Bowl & Fultano's Pizza, ,-123.912026777197,46.0255343639762
303,-121.687175,43.477437,Curbside Bus Stop only (no shelter),2021-07-15T07:04:06,BUS,97737,OR,Gilchrist, ,138303 Highway 97, ,GIL,"Gilchrist, OR", , ,-121.687188933122,43.477442434052
304,-108.569929,39.064375,Station Building (with waiting room),2017-11-06T07:04:57,TRAIN,81501,CO,Grand Junction, ,339 South 1st Street, ,GJT,"Grand Junction, CO", , ,-108.569939829713,39.0643810790141
305,-97.140896,33.625159,Station Building (with waiting room),2017-11-06T07:04:57,TRAIN,76240,TX,Gainesville, ,605 East California Street, ,GLE,"Gainesville, TX", , ,-97.1409036642253,33.6251648799059
306,-87.998055,40.752547,Platform with Shelter,2017-11-06T07:04:58,TRAIN,60938,IL,Gilman, ,800 US Highway 24 West, ,GLM,"Gilman, IL", , ,-87.9980607492315,40.7525546377246
307,-87.805562,42.075038,Station Building (with waiting room),2017-11-06T07:04:58,TRAIN,60025,IL,Glenview, ,1116 Depot Street, ,GLN,"Glenview, IL", , ,-87.8055678214674,42.0750458774898
308,-108.740548,35.529176,Platform only (no shelter),2022-11-21T10:50:00,TRAIN,87301,NM,Gallup, ,201 East Highway 66, ,GLP,"Gallup, NM", , ,-108.740558509018,35.5291815904991
309,-121.566798,37.003961,Curbside Bus Stop only (no shelter),2018-09-21T07:04:45,BUS,95020,CA,Gilroy, ,7250 Monterey Street, ,GLY,"Gilroy, CA", , ,-121.566811000161,37.0039659395745
310,-79.557945,43.195949,Platform with Shelter,2017-11-06T07:04:58,TRAIN,L3M 3H6,ON,Grimsby, ,99 Ontario Street, ,GMS,"Grimsby, ON", , ,-79.557948399591,43.1959574961515
311,-79.546893,40.304986,Platform with Shelter,2019-02-14T07:03:20,TRAIN,15601,PA,Greensburg, ,Harrison Avenue and Seton Hill Drive,Amtrak Station,GNB,"Greensburg, PA",Amtrak Station, ,-79.5468961679356,40.3049939626812
312,-82.323379,29.673652,Station Building (with waiting room),2023-07-21T07:00:00,BUS,32609,FL,Gainesville, ,2340 North Main Street, ,GNF,"Gainesville, FL", , ,-82.3233824229255,29.673657586442
313,-79.54705,40.302773,Curbside Bus Stop only (no shelter),2019-02-14T07:03:21,BUS,15601,PA,Greensburg, ,41 Bell Way,Westmoreland Transit Center,GNG,"Greensburg, PA",Westmoreland Transit Center, ,-79.5470531682945,40.3027809619322
314,-83.819694,34.288897,Station Building (with waiting room),2017-11-06T07:04:59,TRAIN,30501,GA,Gainesville, ,116 Industrial Boulevard, ,GNS,"Gainesville, GA", , ,-83.81969806732,34.2889035704499
315,-124.099324,43.984965,Platform only (no shelter),2021-02-23T07:04:08,BUS,97439,OR,Florence, ,1950 21st St,Grocery Outlet Florence,GOF,"Florence, OR",Grocery Outlet Florence, ,-124.099338393082,43.9849702337497
316,-121.744822,45.302445,Curbside Bus Stop only (no shelter),2022-03-04T07:04:02,BUS,97028,OR,Government Camp, ,Milepost 54 Mount Hood Highway, ,GOV,"Government Camp, OR", , ,-121.744836289881,45.3024505471242
317,-113.219523,48.442333,Station Building (with waiting room),2017-11-06T07:04:59,TRAIN,59434,MT,East Glacier Park, ,400 Highway 49 North, ,GPK,"East Glacier Park, MT", ,"glacier,browning",-113.219536400912,48.44233964813
318,-105.935503,40.084188,Station Building (with waiting room),2017-11-06T07:04:59,TRAIN,80446,CO,Granby, ,438 Railroad Avenue, ,GRA,"Granby, CO", , ,-105.935513366654,40.084194399433
319,-123.614009,45.074259,Curbside Bus Stop only (no shelter),2020-07-10T07:05:08,BUS,97347,OR,Grand Ronde, ,9605 Grand Ronde Rd,Community Center,GRC,"Grand Ronde, OR",Community Center, ,-123.614023533887,45.0742643439117
320,-122.418117,45.501806,Curbside Bus Stop only (no shelter),2021-05-21T07:03:58,BUS,97080,OR,Gresham, ,1200 NE 8th Street, ,GRH,"Gresham, OR", , ,-122.418131437621,45.501811490194
321,-110.165228,38.992039,Platform with Shelter,2019-12-03T07:03:23,TRAIN,84525,UT,Green River, ,250 South Broadway, ,GRI,"Green River, UT", , ,-110.165239159008,38.9920449578622
322,-123.581015,45.058588,Curbside Bus Stop only (no shelter),2020-07-10T07:05:08,BUS,97347,OR,Grand Ronde, ,27100 Salmon River Hwy,Spirit Mountain Casino,GRM,"Grand Ronde, OR",Spirit Mountain Casino,Spirit Mountain Casino,-123.581029525615,45.0585933462075
323,-77.377078,35.610198,Station Building (with waiting room),2018-09-15T07:04:40,BUS,27834,NC,Greenville, ,600 South Pitt Street, ,GRN,"Greenville, NC", ,"East Carolina University,Shaw University,Kinston",-77.3770802167599,35.6102050854754
324,-79.78708,36.069797,Station Building (with waiting room),2018-09-14T07:04:47,TRAIN,27401,NC,Greensboro, ,236 East Washington Street, ,GRO,"Greensboro, NC", , ,-79.787082971787,36.0698040987435
325,-85.672447,42.955788,Station Building (with waiting room),2018-09-29T07:04:42,TRAIN,49503,MI,Grand Rapids, ,440 Century Avenue SW, ,GRR,"Grand Rapids, MI", , ,-85.6724522735265,42.9557961453782
326,-82.413486,34.858256,Station Building (with waiting room),2017-11-06T07:04:59,TRAIN,29601,SC,Greenville, ,1120 West Washington Street, ,GRV,"Greenville, SC", , ,-82.4134896874173,34.8582627446077
327,-87.338949,41.604269,Station Building (with waiting room),2018-09-26T07:04:45,BUS,46402,IN,Gary, ,100 West 4th Avenue, ,GRY,"Gary, IN", , ,-87.3389546369312,41.6042768223168
328,-107.323218,39.547903,Station Building (with waiting room),2017-11-06T07:04:59,TRAIN,81601,CO,Glenwood Springs, ,413 7th Street, ,GSC,"Glenwood Springs, CO", , ,-107.323228613995,39.5479092300097
329,-123.969462,41.84561,Curbside Bus Stop only (no shelter),2018-09-21T07:04:45,BUS,95543,CA,Gasquet, ,10350 Highway 199, ,GSQ,"Gasquet, CA", , ,-123.969476002435,41.8456151160794
330,-119.843092,34.437729,Platform with Shelter,2017-11-06T07:05:00,TRAIN,93117,CA,Goleta, ,25 South La Patera Lane, ,GTA,"Goleta, CA", , ,-119.843104481808,34.4377338049037
331,-123.32402,42.44302,Curbside Bus Stop only (no shelter),2024-04-20T07:07:00,BUS,97526,OR,Grants Pass, ,132 Northeast B Street, ,GTP,"Grants Pass, OR", , ,-123.324034005818,42.443025213205
332,-79.100326,39.692354,Curbside Bus Stop only (no shelter),2018-09-27T07:04:48,BUS,21536,MD,Grantsville, ,3000 Chestnut Ridge Road, ,GTV,"Grantsville, MD", , ,-79.1003289868809,39.6923618623237
333,-120.57341,34.962927,Station Building (with waiting room),2018-09-14T07:04:48,TRAIN,93434,CA,Guadalupe, ,330 Guadalupe Street, ,GUA,"Guadalupe, CA", ,santa maria,-120.57342264371,34.9629318143608
334,-89.09478,30.369036,Platform only (no shelter),2025-03-21T07:06:38,TRAIN,39501,MS,Gulfport, ,1419 27th Avenue, ,GUF,"Gulfport, MS", , ,-89.0947853634926,30.3690415361584
335,-72.67361,41.275369,Station Building (with waiting room),2024-08-22T10:54:59,TRAIN,06437,CT,Guilford, ,325 Old Whitfield Street, ,GUI,"Guilford, CT", , ,-72.6736110536434,41.2753774118868
336,-106.922057,38.544173,Curbside Bus Stop only (no shelter),2024-07-12T07:00:00,BUS,81230,CO,Gunnison, ,411 East Tomichi Street, ,GUN,"Gunnison, CO", , ,-106.92206741139,38.5441791236716
337,-120.629266,35.12126,Platform with Shelter,2020-03-06T07:11:09,TRAIN,93433,CA,Grover Beach, ,180 West Grand Avenue, ,GVB,"Grover Beach, CA", , ,-120.629278667266,35.1212648258461
338,-75.467999,44.335612,Curbside Bus Stop only (no shelter),2018-06-22T07:04:36,BUS,13642,NY,Gouverneur, ,49 East Main Street, ,GVR,"Gouverneur, NY", , ,-75.4680011733186,44.3356208761379
339,-90.176454,33.517159,Station Building (with waiting room),2017-11-06T07:05:00,TRAIN,38930,MS,Greenwood, ,Carrollton Avenue and East Gibson Street, ,GWD,"Greenwood, MS", , ,-90.1764598199776,33.5171651604657
340,-84.708063,44.64765,Curbside Bus Stop only (no shelter),2018-09-27T07:04:48,BUS,49738,MI,Grayling, ,2615 South I-75 Business Loop, ,GYG,"Grayling, MI", , ,-84.7080681577263,44.6476584806297
341,-84.691914,45.027057,Curbside Bus Stop only (no shelter),2018-09-27T07:04:48,BUS,49734,MI,Gaylord, ,1041 West Main Street, ,GYL,"Gaylord, MI", , ,-84.6919191950676,45.0270655431807
342,-77.722497,39.64466,Curbside Bus Stop only (no shelter),2018-09-27T07:04:48,BUS,21740,MD,Hagerstown, ,123 West Franklin Street, ,HAG,"Hagerstown, MD", , ,-77.7224995555118,39.6446679079258
343,-79.699218,34.883663,Station Building (with waiting room),2018-09-14T07:04:48,TRAIN,28345,NC,Hamlet, ,2 Main Street, ,HAM,"Hamlet, NC", , ,-79.6992208819562,34.8836698481066
344,-76.878256,40.26205,Station Building (with waiting room),2017-11-06T07:05:01,TRAIN,17101,PA,Harrisburg, ,4th and Chestnut Streets, ,HAR,"Harrisburg, PA", , ,-76.878258332072,40.262058062326
345,-98.387534,40.584276,Station Building (with waiting room),2017-11-06T07:05:01,TRAIN,68901,NE,Hastings, ,501 West First Street, ,HAS,"Hastings, NE", , ,-98.3875425907158,40.5842829880927
346,-109.678352,48.554465,Station Building (with waiting room),2017-11-06T07:05:01,TRAIN,59501,MT,Havre, ,235 Main Street, ,HAV,"Havre, MT", , ,-109.678364649309,48.554472019792
347,-122.099277,37.665997,Platform with Shelter,2017-11-06T07:05:02,TRAIN,94541,CA,Hayward, ,22555 Meekland Avenue, ,HAY,"Hayward, CA", , ,-122.099290154328,37.666001958173
348,-90.394347,31.86132,Platform with Shelter,2017-11-06T07:05:02,TRAIN,39083,MS,Hazlehurst, ,North Ragsdale Avenue and East Conway Street, ,HAZ,"Hazlehurst, MS", , ,-90.3943527893682,31.861325810267
349,-89.286463,31.326921,Station Building (with waiting room),2018-08-15T07:04:57,TRAIN,39401,MS,Hattiesburg, ,308 Newman Street, ,HBG,"Hattiesburg, MS", , ,-89.286468460028,31.3269267374369
350,-122.869456,38.606841,Curbside Bus Stop only (no shelter),2018-07-14T07:04:32,BUS,95448,CA,Healdsburg, ,149 Healdsburg Avenue, ,HEA,"Healdsburg, CA", , ,-122.869469381605,38.6068459774558
351,-91.432558,38.707283,Station Building (with waiting room),2017-11-06T07:05:02,TRAIN,65041,MO,Hermann, ,301 Wharf Street, ,HEM,"Hermann, MO", , ,-91.432564539857,38.7072900902175
352,-110.853894,39.684036,Station Building (with waiting room),2017-11-06T07:05:02,TRAIN,84526,UT,Helper, ,1 Depot Street, ,HER,"Helper, UT", , ,-110.853905384066,39.6840419919672
353,-72.681314,41.768761,Station Building (with waiting room),2017-11-06T07:05:02,TRAIN,06103,CT,Hartford, ,One Union Place, ,HFD,"Hartford, CT", , ,-72.6813150854701,41.7687695066808
354,-77.731078,39.324452,Platform with Shelter,2018-09-14T07:04:48,TRAIN,25425,WV,Harpers Ferry, ,Potomac Street & Shenandoah Street, ,HFY,"Harpers Ferry, WV", , ,-77.7310805379901,39.3244598442996
355,-78.01178,40.483665,Station Building (with waiting room),2017-11-06T07:05:03,TRAIN,16652,PA,Huntingdon, ,Fourth and Allegheny Streets, ,HGD,"Huntingdon, PA", , ,-78.01178270234,40.4836730606734
356,-88.54963,47.118726,Curbside Bus Stop only (no shelter),2018-09-27T07:04:48,BUS,49931,MI,Houghton, ,Townsend Drive and Hubbell Street,Michigan Tech University,HGH,"Houghton, MI",Michigan Tech University, ,-88.5496366544252,47.1187346259979
357,-84.80111,44.335421,Curbside Bus Stop only (no shelter),2018-09-27T07:04:49,BUS,48629,MI,Houghton Lake, ,9391 West Lake City Road, ,HGL,"Houghton Lake, MI", , ,-84.8011151526971,44.3354294244633
358,-74.640035,44.966824,Curbside Bus Stop only (no shelter),2018-06-22T07:04:36,BUS,13655,NY,Hogansburg, ,935 State Highway 37, ,HGS,"Hogansburg, NY", , ,-74.6400369503133,44.9668330199624
359,-71.086375,42.773297,Platform with Shelter,2017-11-06T07:05:03,TRAIN,01832,MA,Haverhill, ,Washington Street at Railroad Square, ,HHL,"Haverhill, MA", , ,-71.0863756239726,42.7733057503761
360,-80.892232,37.675037,Station Building (with waiting room),2018-09-14T07:04:48,TRAIN,25951,WV,Hinton, ,100 Second Avenue, ,HIN,"Hinton, WV", , ,-80.892235401279,37.6750443887177
361,-124.072165,41.792839,Curbside Bus Stop only (no shelter),2018-09-26T07:04:45,BUS,95531,CA,Crescent City, ,2100 Highway 199, ,HIO,"Hiouchi, CA", ,Crescent City,-124.072179008158,41.7928441035343
362,-88.580295,47.126982,Curbside Bus Stop only (no shelter),2018-09-27T07:04:49,BUS,49930,MI,Hancock, ,125 Quincy Street, ,HKM,"Hancock, MI", , ,-88.5803016653381,47.1269906252122
363,-122.866305,45.537276,Curbside Bus Stop only (no shelter),2021-09-10T07:03:52,BUS,97006,OR,Hillsboro, ,2435 NE Town Center Drive, ,HLB,"Hillsboro, OR", , ,-122.86631951452,45.5372814462296
364,-99.370077,40.436013,Platform only (no shelter),2021-06-16T07:04:08,TRAIN,68949,NE,Holdrege, ,200 East Avenue, ,HLD,"Holdrege, NE", , ,-99.3700858247944,40.4360199004594
365,-72.602309,42.204156,Platform with Shelter,2017-11-06T07:05:03,TRAIN,01041,MA,Holyoke, ,74 Main Street, ,HLK,"Holyoke, MA", , ,-72.6023100861,42.2041645929736
366,-90.462169,30.50718,Station Building (with waiting room),2017-11-06T07:05:03,TRAIN,70401,LA,Hammond, ,404 N.W. Railroad Avenue, ,HMD,"Hammond, LA", , ,-90.4621747426147,30.5071855206002
367,-87.506511,41.691155,Station Building (with waiting room),2017-11-06T07:05:03,TRAIN,46320,IN,Hammond, ,1135 North Calumet Avenue, ,HMI,"Hammond-Whiting, IN", ,Whiting,-87.5065166951752,41.6911628281578
368,-87.668685,41.562446,Station Building (with waiting room),2017-11-06T07:05:04,TRAIN,60430,IL,Homewood, ,18015 Park Avenue, ,HMW,"Homewood, IL", , ,-87.6686907302104,41.5624537972614
369,-119.651816,36.326078,Station Building (with waiting room),2017-11-06T07:05:04,TRAIN,93230,CA,Hanford, ,200 Santa Fe Avenue #A, ,HNF,"Hanford, CA", , ,-119.651828626626,36.3260830064687
370,-78.154315,39.695275,Curbside Bus Stop only (no shelter),2023-03-20T12:03:28,BUS,21750,MD,Hancock, ,434 East Main Street, ,HNK,"Hancock, MD", , ,-78.1543176931752,39.6952829014064
371,-95.302025,29.735485,Station Building (with waiting room),2023-12-14T07:00:00,BUS,77011,TX,Houston, ,7000 Harrisburg Blvd,Greyhound Terminal,HOG,"Houston, TX",Greyhound Terminal, ,-95.3020319846903,29.7354901942114
372,-80.167884,26.011641,Station Building (with waiting room),2017-11-06T07:05:04,TRAIN,33021,FL,Hollywood, ,3001 Hollywood Boulevard, ,HOL,"Hollywood, FL", , ,-80.1678866791874,26.0116457469433
373,-86.096553,42.791096,Station Building (with waiting room),2017-11-06T07:05:04,TRAIN,49423,MI,Holland, ,171 Lincoln Avenue, ,HOM,"Holland, MI", , ,-86.0965583852556,42.7911040943858
374,-121.51162,45.709641,Station Building (with waiting room),2018-09-27T07:04:50,BUS,97031,OR,Hood River, ,110 Railroad Street, ,HOO,"Hood River, OR", ,"Bingen-White Salmon,White Salmon",-121.511634336521,45.7096465958966
375,-93.592247,33.668913,Station Building (with waiting room),2017-11-06T07:05:04,TRAIN,71801,AR,Hope, ,100 East Division Street, ,HOP,"Hope, AR", , ,-93.5922537495971,33.6689190464453
376,-95.367526,29.767245,Station Building (with waiting room),2018-12-22T07:03:26,TRAIN,77002,TX,Houston, ,902 Washington Avenue,Amtrak Station,HOS,"Houston, TX",Amtrak Station, ,-95.367533002958,29.7672501982188
377,-80.006097,35.957128,Station Building (with waiting room),2017-11-06T07:05:05,TRAIN,27260,NC,High Point, ,100 West High Avenue, ,HPT,"High Point, NC", , ,-80.0061000309405,35.9571350669214
378,-117.605297,43.855307,Curbside Bus Stop only (no shelter),2018-09-27T07:04:50,BUS,97906,OR,Harper, ,3459 U.S. Highway 20, ,HRP,"Harper, OR", , ,-117.605310310951,43.8553128461271
379,-124.081496,40.873347,Curbside Bus Stop only (no shelter),2022-03-04T07:04:02,BUS,95521,CA,Arcata, ,L K Wood Boulevard,Cal Poly Humboldt,HSU,"Arcata, CA",Cal Poly Humboldt,Humboldt State University,-124.081509867404,40.8733520428038
380,-74.79934,39.631317,Platform with Shelter,2018-09-27T07:04:50,TRAIN,08037,NJ,Hammonton, ,Egg Harbor Road & Line Street, ,HTN,"Hammonton, NJ", , ,-74.7993416360752,39.6313250139163
381,-73.797729,42.253891,Station Building (with waiting room),2017-11-06T07:05:05,TRAIN,12534,NY,Hudson, ,69 South Front Street, ,HUD,"Hudson, NY", , ,-73.7977304788066,42.2538995601078
382,-82.439735,38.41582,Station Building (with waiting room),2017-11-06T07:05:05,TRAIN,25701,WV,Huntington, ,1050 8th Avenue, ,HUN,"Huntington, WV", , ,-82.4397389163635,38.4158274719482
383,-97.931522,38.055712,Station Building (with waiting room),2017-11-06T07:05:05,TRAIN,67501,KS,Hutchinson, ,North Walnut Street & East 3rd Avenue, ,HUT,"Hutchinson, KS", , ,-97.9315302137434,38.0557186143944
384,-76.926115,34.891191,Curbside Bus Stop only (no shelter),2018-09-27T07:04:50,BUS,28532,NC,Havelock, ,201 Tourist Center Drive, ,HVL,"Havelock, NC", , ,-76.9261170436241,34.8911979431786
385,-85.469631,43.398305,Curbside Bus Stop only (no shelter),2018-09-27T07:04:50,BUS,49329,MI,Howard City, ,117 West Williams Street, ,HWC,"Howard City, MI", , ,-85.4696362577586,43.3983132315583
386,-116.233132,33.714863,Curbside Bus Stop only (no shelter),2018-09-29T07:04:42,BUS,92201,CA,Indio, ,82120 Highway 111, ,IDO,"Indio, CA", , ,-116.233143813319,33.7148679289041
387,-94.429711,39.086917,Platform only (no shelter),2024-09-20T07:00:00,TRAIN,64050,MO,Independence, ,600 South Grand Avenue, ,IDP,"Independence, MO", , ,-94.4297183933505,39.0869239896128
388,-79.160006,40.61314,Curbside Bus Stop only (no shelter),2019-09-05T07:03:22,BUS,15705,PA,Indiana, ,711 Pratt Drive,Indiana University of Penn,INA,"Indiana, PA",Indiana University of Penn, ,-79.1600090703295,40.6131480377556
389,-86.160423,39.761984,Station Building (with waiting room),2017-11-06T07:05:06,TRAIN,46225,IN,Indianapolis, ,350 South Illinois Street, ,IND,"Indianapolis, IN", , ,-86.1604281240528,39.7619915548098
390,-117.733695,33.656771,Station Building (with waiting room),2018-09-14T07:04:48,TRAIN,92618,CA,Irvine, ,15215 Barranca Parkway, ,IRV,"Irvine, CA", , ,-117.733707069669,33.6567758402062
391,-90.190936,32.300808,Station Building (with waiting room),2017-11-06T07:05:06,TRAIN,39201,MS,Jackson, ,300 West Capitol Street, ,JAN,"Jackson, MS", , ,-90.1909417565056,32.3008139096193
392,-81.723893,30.365601,Station Building (with waiting room),2017-11-06T07:05:06,TRAIN,32209,FL,Jacksonville, ,3570 Clifford Lane, ,JAX,"Jacksonville, FL", , ,-81.7238962752218,30.3656067658158
393,-92.169906,38.57887,Platform with Shelter,2019-10-03T07:03:13,TRAIN,65101,MO,Jefferson City, ,101 Jefferson Street, ,JEF,"Jefferson City, MO", , ,-92.1699127321195,38.5788770278361
394,-77.40727,34.76693,Station Building (with waiting room),2022-07-15T07:04:17,BUS,28540,NC,Jacksonville, ,1300 North Marine Boulevard, ,JNC,"Jacksonville, NC", ,Swansboro,-77.4072721838274,34.7669369003247
395,-119.053991,37.812766,Curbside Bus Stop only (no shelter),2020-02-07T07:11:23,BUS,93529,CA,June Lake, ,Junction U.S. Highway 395 & State Highway 158, ,JNL,"June Lake, CA", , ,-119.054003688461,37.8127711910138
396,-88.763099,43.089988,Curbside Bus Stop only (no shelter),2022-03-16T07:04:11,BUS,53038,WI,Johnson Creek, ,575 Linmar Lane, ,JOC,"Johnson Creek, WI", , ,-88.7631052108357,43.0899959915045
397,-88.078731,41.524647,Station Building (with waiting room),2018-09-29T07:04:42,TRAIN,60432,IL,Joliet, ,90 East Jefferson Street, ,JOL,"Joliet, IL", , ,-88.0787368467954,41.5246547681416
398,-81.882173,31.605589,Station Building (with waiting room),2017-11-06T07:05:07,TRAIN,31545,GA,Jesup, ,176 Northwest Broad Street, ,JSP,"Jesup, GA", , ,-81.8821763722151,31.6055950467695
399,-78.921996,40.329689,Station Building (with waiting room),2017-11-06T07:05:07,TRAIN,15901,PA,Johnstown, ,47 Walnut Street, ,JST,"Johnstown, PA", , ,-78.9219989760397,40.3296969934148
400,-118.080077,43.745252,Curbside Bus Stop only (no shelter),2018-07-12T07:04:31,BUS,97911,OR,Juntura, ,5838 U.S. Highway 20, ,JTR,"Juntura, OR", , ,-118.080090376179,43.7452577924587
401,-88.988186,42.719995,Station Building (with waiting room),2018-09-28T07:04:42,BUS,53545,WI,Janesville, ,3120 North Pontiac Drive, ,JVL,"Janesville, WI", , ,-88.9881922366696,42.7200029173279
402,-84.39967,42.248113,Station Building (with waiting room),2017-11-06T07:05:07,TRAIN,49201,MI,Jackson, ,501 East Michigan Avenue, ,JXN,"Jackson, MI", , ,-84.3996748183806,42.2481210913503
403,-85.584018,42.295255,Station Building (with waiting room),2017-11-06T07:05:07,TRAIN,49007,MI,Kalamazoo, ,459 North Burdick Street, ,KAL,"Kalamazoo, MI", , ,-85.5840231814614,42.2952630371139
404,-80.624928,35.496172,Station Building (with waiting room),2017-11-06T07:05:07,TRAIN,28081,NC,Kannapolis, ,201 South Main Street, ,KAN,"Kannapolis, NC", , ,-80.6249311916752,35.4961789466567
405,-94.585129,39.084576,Station Building (with waiting room),2018-09-14T07:04:48,TRAIN,64108,MO,Kansas City, ,30 West Pershing Road,Union Station,KCY,"Kansas City, MO",Union Station,Union Station,-94.5851364344924,39.0845829801765
406,-89.927544,41.245765,Station Building (with waiting room),2018-09-14T07:04:48,TRAIN,61443,IL,Kewanee, ,210 West Third Street, ,KEE,"Kewanee, IL", , ,-89.9275503540562,41.245772615654
407,-122.913016,46.142264,Station Building (with waiting room),2017-11-06T07:05:08,TRAIN,98626,WA,Kelso, ,501 South First Avenue, ,KEL,"Kelso-Longview, WA", ,Longview,-122.913030650754,46.1422694756521
408,-121.771952,42.225509,Station Building (with waiting room),2017-11-06T07:05:08,TRAIN,97601,OR,Klamath Falls, ,1600 Oak Avenue, ,KFS,"Klamath Falls, OR", , ,-121.771965733058,42.2255143393057
409,-121.136344,36.202547,Curbside Bus Stop only (no shelter),2018-09-29T07:04:43,BUS,93930,CA,King City, ,1350 Broadway Circle, ,KGC,"King City, CA", , ,-121.136356850051,36.2025518965398
410,-122.496288,47.796069,Curbside Bus Stop only (no shelter),2019-02-16T07:03:16,BUS,98346,WA,Kingston, ,11264 State Route 104,Washington State Ferry dock,KGE,"Kingston - Eastbound, WA",Washington State Ferry dock, ,-122.496302965697,47.7960746083645
411,-85.535201,44.584797,Curbside Bus Stop only (no shelter),2018-09-27T07:04:51,BUS,49649,MI,Kingsley, ,119 East Main Street (Hwy 113), ,KGS,"Kingsley, MI", , ,-85.535206405879,44.5848054236128
412,-122.500484,47.802025,Curbside Bus Stop only (no shelter),2019-02-16T07:03:16,BUS,98346,WA,Kingston, ,10960 State Route 104,Henery Hardware,KGW,"Kingston - Westbound, WA",Henery Hardware, ,-122.500498967643,47.8020306080343
413,-97.728617,31.121152,Station Building (with waiting room),2018-09-27T07:04:51,BUS,76541,TX,Killeen, ,200 East Avenue C, ,KIL,"Killeen, TX", , ,-97.7286246655861,31.1211573821471
414,-71.560597,41.483959,Station Building (with waiting room),2018-02-18T07:04:25,TRAIN,02892,RI,West Kingston, ,1 Railroad Avenue, ,KIN,"Kingston, RI", , ,-71.5605977042553,41.4839674888137
415,-81.404234,28.293835,Station Building (with waiting room),2017-11-06T07:05:08,TRAIN,34741,FL,Kissimmee, ,111 East Dakin Avenue, ,KIS,"Kissimmee, FL", , ,-81.4042371073041,28.2938402829077
416,-87.86543,41.119259,Station Building (with waiting room),2017-11-06T07:05:09,TRAIN,60901,IL,Kankakee, ,199 South East Avenue, ,KKI,"Kankakee, IL", , ,-87.8654357453369,41.1192667090737
417,-72.794305,43.627005,Curbside Bus Stop only (no shelter),2018-09-27T07:04:51,BUS,05751,VT,Killington, ,228 East Mountain Road, ,KLT,"Killington, VT", , ,-72.7943062410203,43.6270138509531
418,-77.584478,35.243706,Station Building (with waiting room),2018-09-27T07:04:51,BUS,28504,NC,Kinston, ,101 East New Bern Road, ,KNC,"Kinston, NC", , ,-77.5844802608625,35.2437129992889
419,-114.052816,35.188279,Station Building (with waiting room),2017-11-06T07:05:09,TRAIN,86401,AZ,Kingman, ,402 Andy Devine, ,KNG,"Kingman, AZ", , ,-114.052827539229,35.1882842322845
420,-84.506535,46.273752,Curbside Bus Stop only (no shelter),2022-08-15T07:04:38,BUS,49752,MI,Kinross Charter Twp, ,6737 M-80, ,KNS,"Kinross Charter Twp, MI", , ,-84.5065402829567,46.2737607512534
421,-76.240827,38.966498,Curbside Bus Stop only (no shelter),2018-10-21T07:00:00,BUS,21638,MD,Grasonville, ,3206 Main Street, ,KNT,"Kent Island-Grasonville, MD", ,Grasonville,-76.2408290508712,38.9665058287188
422,-79.829026,33.663882,Station Building (with waiting room),2017-11-06T07:05:09,TRAIN,29556,SC,Kingstree, ,101 East Main St., ,KTR,"Kingstree, SC", , ,-79.8290288598496,33.6638885760539
423,-73.786232,44.188528,Curbside Bus Stop only (no shelter),2018-06-22T07:04:37,BUS,12943,NY,Keene Valley, ,1770 Route 73, ,KVL,"Keene Valley, NY", , ,-73.7862336080351,44.1885369159954
424,-90.406761,38.581067,Station Building (with waiting room),2017-11-06T07:05:10,TRAIN,63122,MO,Kirkwood, ,110 West Argonne Drive, ,KWD,"Kirkwood, MO", , ,-90.4067672433884,38.5810741225516
425,-79.385083,40.317405,Platform only (no shelter),2020-10-06T07:05:18,TRAIN,15650,PA,Latrobe, ,329 McKinley Avenue,Amtrak Station,LAB,"Latrobe, PA",Amtrak Station, ,-79.3850861185755,40.3174129716664
426,-118.077612,45.326472,Station Building (with waiting room),2018-09-27T07:04:52,BUS,97850,OR,La Grande, ,2204 East Penn Avenue , ,LAE,"La Grande, OR", , ,-118.077625672127,45.3264779148236
427,-86.895901,40.419347,Station Building (with waiting room),2019-06-12T07:03:27,TRAIN,47901,IN,Lafayette, ,200 North Second Street,Amtrak Station,LAF,"Lafayette, IN",Amtrak Station, ,-86.8959063966946,40.4193546371294
428,-87.871545,41.815634,Station Building (with waiting room),2018-09-28T07:04:42,TRAIN,60525,IL,La Grange, ,25 West Burlington Avenue, ,LAG,"La Grange, IL", , ,-87.8715508146311,41.8156418296329
429,-103.543576,37.988249,Station Building (with waiting room),2017-11-06T07:05:10,TRAIN,81050,CO,La Junta, ,1 West First Street, ,LAJ,"La Junta, CO", , ,-103.543585582916,37.9882552632587
430,-81.951874,28.045603,Station Building (with waiting room),2018-09-14T07:04:48,TRAIN,33801,FL,Lakeland, ,600 East  Main Street,To/from points north,LAK,"Lakeland, FL",To/from points north, ,-81.9518772587778,28.0456082084338
431,-88.453159,46.756951,Curbside Bus Stop only (no shelter),2023-06-23T07:00:00,BUS,49946,MI,L'Anse, ,102 East Broad Street, ,LAN,"L'Anse, MI", ,Lanse,-88.4531655735437,46.7569595797493
432,-92.493384,40.02922,Station Building (with waiting room),2018-09-14T07:04:49,TRAIN,63549,MO,La Plata, ,535 North Owensby Street, ,LAP,"La Plata, MO", , ,-92.4933909563136,40.0292272613901
433,-115.148493,36.085973,Curbside Bus Stop only (no shelter),2018-09-27T07:04:52,BUS,89111,NV,Las Vegas, ,5757 Wayne Newton Boulevard,McCarran International Airport,LAS,"Las Vegas, NV",McCarran International Airport,"McCarran International,McCarran Intl,McCarran Airport",-115.148504824768,36.0859782725735
434,-86.894444,40.420668,Station Building (with waiting room),2023-06-09T15:08:49,BUS,47901,IN,Lafayette, ,316 North 3rd Street,CityBus Center,LAT,"Lafayette, IN",CityBus Center, ,-86.8944493966774,40.4206756375512
435,-89.127933,31.692168,Station Building (with waiting room),2017-11-06T07:05:11,TRAIN,39440,MS,Laurel, ,230 North Maple Street, ,LAU,"Laurel, MS", , ,-89.1279384346547,31.6921738205432
436,-118.236778,34.056177,Station Building (with waiting room),2019-09-07T07:03:26,TRAIN,90012,CA,Los Angeles, ,800 North Alameda Street,Union Station,LAX,"Los Angeles, CA",Union Station,Union Station,-118.236790186569,34.0561818568002
437,-118.266511,34.231944,Curbside Bus Stop only (no shelter),2018-09-26T07:04:46,BUS,91214,CA,La Crescenta, ,6201 Honolulu Avenue, ,LCA,"La Crescenta, CA", , ,-118.266523206155,34.2319488741267
438,-93.217037,30.238126,Station Building (with waiting room),2017-11-06T07:05:11,TRAIN,70601,LA,Lake Charles, ,100 Ryan Street, ,LCH,"Lake Charles, LA", , ,-93.2170434660937,30.2381313691663
439,-89.363051,40.148199,Station Building (with waiting room),2017-12-07T07:04:19,TRAIN,62656,IL,Lincoln, ,103 North Chicago Street, ,LCN,"Lincoln, IL", , ,-89.3630570865052,40.1482064578349
440,-124.010371,44.996526,Curbside Bus Stop only (no shelter),2020-07-01T07:00:00,BUS,97367,OR,Lincoln City, ,1725 NW 44th St., ,LCO,"Lincoln City, OR", , ,-124.010385576918,44.9965312993805
441,-106.78006,32.3055,Curbside Bus Stop only (no shelter),2022-06-11T07:04:31,BUS,88005,NM,Las Cruces, ,300 West Lohman Avenue, ,LCR,"Las Cruces, NM", , ,-106.780069847555,32.305505207599
442,-118.136432,34.6963,Platform with Shelter,2018-09-26T07:04:47,BUS,93534,CA,Lancaster, ,44812 Sierra Highway, ,LCS,"Lancaster, CA", , ,-118.136444223608,34.696304932781
443,-69.008642,44.282075,Curbside Bus Stop only (no shelter),2018-09-26T07:04:47,BUS,04849,ME,Lincolnville, ,2512 Atlantic Highway, ,LCV,"Lincolnville, ME", , ,-69.0086420199847,44.2820840932918
444,-108.707025,32.35007,Platform with Shelter,2019-12-03T07:03:23,TRAIN,88045,NM,Lordsburg, ,Center Street and East Motel Drive, ,LDB,"Lordsburg, NM", , ,-108.707035260991,32.3500751254868
445,-75.000759,39.83383,Station Building (with waiting room),2018-09-27T07:04:52,TRAIN,08083,NJ,Somerdale, ,Station Avenue & White Horse Road West, ,LDW,"Lindenwold, NJ", , ,-75.0007607122875,39.833838047672
446,-94.377972,38.912623,Platform with Shelter,2017-11-06T07:05:12,TRAIN,64063,MO,Lee's Summit, ,217 SW Main Street, ,LEE,"Lee's Summit, MO", , ,-94.3779793631146,38.9126299634502
447,-123.727964,39.878226,Curbside Bus Stop only (no shelter),2018-09-26T07:04:47,BUS,95585,CA,Leggett, ,69501 Highway 101 North, ,LEG,"Leggett, CA", , ,-123.72797767354,39.8782310038538
448,-120.644604,47.597678,Curbside Bus Stop only (no shelter),2023-02-10T07:07:00,BUS,98826,WA,Leavenworth, ,200 Ward Strasse,Wilkommen Park and Ride,LEV,"Leavenworth, WA",Wilkommen Park and Ride, ,-120.644618613468,47.5976837998105
449,-77.580047,40.588309,Station Building (with waiting room),2019-02-14T07:03:21,TRAIN,17044,PA,Lewistown, ,150 Helen Street,Amtrak Station,LEW,"Lewistown, PA",Amtrak Station, ,-77.5800495740485,40.5883170982931
450,-80.251565,35.820856,Platform only (no shelter),2018-02-18T07:04:25,TRAIN,27292,NC,Lexington, ,29 South Railroad Street, ,LEX,"Lexington Barbeque Festival, NC", , ,-80.2515680977208,35.8208630290363
451,-92.014519,30.226548,Station Building (with waiting room),2017-11-06T07:05:12,TRAIN,70501,LA,Lafayette, ,100 Lee Avenue, ,LFT,"Lafayette, LA", , ,-92.014525147459,30.2265534082986
452,-73.521142,45.523836,Station Building (with waiting room),2024-08-22T10:54:59,BUS,J4K 2T4,QC,Longueuil, ,120 Place Charles-Lemoyne, ,LGU,"Longueuil, QC", , ,-73.5211436207408,45.5238451601637
453,-115.54889,48.394842,Station Building (with waiting room),2017-11-06T07:05:13,TRAIN,59923,MT,Libby, ,100 Mineral Avenue, ,LIB,"Libby, MT", , ,-115.548903865245,48.3948483993017
454,-121.767121,37.684915,Station Building (with waiting room),2024-04-03T07:07:45,BUS,94550,CA,Livermore, ,2500 Railroad Avenue,Livermore Transit Center,LIV,"Livermore, CA",Livermore Transit Center, ,-121.767134106573,37.6849199839131
455,-81.951874,28.045603,Station Building (with waiting room),2018-09-14T07:04:49,TRAIN,33801,FL,Lakeland, ,600 East Main Street,To/from points south,LKL,"Lakeland, FL",To/from points south, ,-81.9518772587778,28.0456082084338
456,-119.784545,36.303131,Curbside Bus Stop only (no shelter),2018-09-26T07:04:47,BUS,93245,CA,Lemoore, ,300 E Street, ,LMC,"Lemoore, CA", , ,-119.784557645549,36.3031359950634
457,-102.618574,38.089623,Platform only (no shelter),2017-11-06T07:05:14,TRAIN,81052,CO,Lamar, ,109 E Beech Street, ,LMR,"Lamar, CO", , ,-102.618583373813,38.0896293365332
458,-105.879968,35.480973,Station Building (with waiting room),2018-09-14T07:04:49,TRAIN,87540,NM,Lamy, ,152 Old Lamy Trail, ,LMY,"Lamy, NM", , ,-105.879977885348,35.4809787478299
459,-76.307714,40.054181,Station Building (with waiting room),2017-11-06T07:05:14,TRAIN,17602,PA,Lancaster, ,53 McGovern Avenue, ,LNC,"Lancaster, PA", , ,-76.3077161390796,40.0541890434862
460,-96.71317,40.815871,Station Building (with waiting room),2017-11-06T07:05:14,TRAIN,68508,NE,Lincoln, ,277 Pinnacle Arena Drive, ,LNK,"Lincoln, NE", , ,-96.713178179131,40.815878132224
461,-84.495962,42.718731,Station Building (with waiting room),2017-11-06T07:05:14,TRAIN,48823,MI,East Lansing, ,1240 South Harrison Road, ,LNS,"East Lansing, MI", ,Lansing,-84.4959668928737,42.718739168397
462,-114.575778,35.158568,Curbside Bus Stop only (no shelter),2023-05-12T07:00:00,BUS,89029,NV,Laughlin, ,2121 South Casino Drive, ,LNV,"Laughlin, NV", , ,-114.575789634053,35.1585731977297
463,-81.241735,42.983999,Curbside Bus Stop only (no shelter),2024-08-22T10:54:59,BUS,N6B 1P8,ON,London, ,352 Waterloo Street, ,LOB,"London, ON", , ,-81.2417389116055,42.9840073791887
464,-121.271887,38.133201,Station Building (with waiting room),2017-11-06T07:05:14,TRAIN,95240,CA,Lodi, ,24 South Sacramento Street, ,LOD,"Lodi, CA", , ,-121.27190008235,38.1332060584664
465,-106.208804,35.827795,Curbside Bus Stop only (no shelter),2018-09-27T07:04:53,BUS,87506,NM,Los Alamos, ,124 State Highway 4,White Rock Area,LOH,"Los Alamos, NM",White Rock Area, ,-106.208813987985,35.8278007804355
466,-120.459285,34.63834,Curbside Bus Stop only (no shelter),2018-09-26T07:04:47,BUS,93436,CA,Lompoc, ,111 South I Street, ,LOM,"Lompoc, CA", , ,-120.459297596879,34.6383447891631
467,-77.220942,38.708143,Station Building (with waiting room),2017-11-06T07:05:15,TRAIN,22079,VA,Lorton, ,8006 Lorton Road,Auto Train Station,LOR,"Lorton, VA",Auto Train Station,Washington,-77.2209443408577,38.7081507405318
468,-106.29992,35.881799,Curbside Bus Stop only (no shelter),2018-09-27T07:04:53,BUS,87544,NM,Los Alamos, ,109 Central Park Square,Central Area,LOS,"Los Alamos, NM",Central Area, ,-106.29993001293,35.8818047838434
469,-83.306154,43.04952,Station Building (with waiting room),2017-11-06T07:05:15,TRAIN,48446,MI,Lapeer, ,73 Howard Street, ,LPE,"Lapeer, MI", , ,-83.3061585596146,43.0495282877417
470,-121.499956,43.674176,Curbside Bus Stop only (no shelter),2018-09-27T07:04:53,BUS,97739,OR,La Pine, ,16515 Reed Road, ,LPN,"La Pine, OR", ,LaPine,-121.499969938932,43.6741814656227
471,-120.605001,34.682704,Platform with Shelter,2017-11-06T07:05:15,TRAIN,93437,CA,Surf, ,Ocean Ave and Park Rd, ,LPS,"Lompoc-Surf, CA", ,Surf,-120.605013623645,34.6827087847475
472,-116.289964,33.710979,Curbside Bus Stop only (no shelter),2018-09-26T07:04:47,BUS,92253,CA,La Quinta, ,78822 Highway 111, ,LQT,"La Quinta, CA", , ,-116.289975823194,33.7109839253756
473,-95.230539,38.971166,Station Building (with waiting room),2017-11-06T07:05:15,TRAIN,66044,KS,Lawrence, ,413 East 7th Street, ,LRC,"Lawrence, KS", , ,-95.2305465966124,38.9711729242649
474,-92.286785,34.750298,Station Building (with waiting room),2017-11-06T07:05:15,TRAIN,72201,AR,Little Rock, ,1400 West Markham Street,Union Station,LRK,"Little Rock, AR",Union Station,Union Station,-92.286791470131,34.7503043140816
475,-105.608549,41.32992,Curbside Bus Stop only (no shelter),2018-09-28T07:04:43,BUS,82072,WY,Laramie, ,1952 North Banner Road, ,LRY,"Laramie, WY", , ,-105.608559448337,41.3299265872244
476,-76.887341,40.963073,Curbside Bus Stop only (no shelter),2018-09-27T07:04:54,BUS,17837,PA,Lewisburg, ,500 Market Street, ,LSB,"Lewisburg, PA", ,Bucknell University,-76.8873433817142,40.9630811977965
477,-91.247298,43.833155,Station Building (with waiting room),2022-03-15T07:04:09,TRAIN,54601,WI,La Crosse, ,601 St. Andrew Street,Amtrak Station,LSE,"La Crosse, WI",Amtrak Station, ,-91.2473050219321,43.8331629562289
478,-105.212779,35.593432,Station Building (with waiting room),2017-11-06T07:05:16,TRAIN,87701,NM,Las Vegas, ,500 Railroad Avenue at Lincoln, ,LSV,"Las Vegas, NM", , ,-105.212788744698,35.5934378022278
479,-91.229332,43.817112,Curbside Bus Stop only (no shelter),2022-03-16T07:04:11,BUS,54601,WI,La Crosse, ,521 East Avenue N,University of Wisconsin,LSW,"La Crosse, WI",University of Wisconsin, ,-91.2293390153887,43.8171199547863
480,-79.405407,40.272842,Curbside Bus Stop only (no shelter),2019-02-14T07:03:22,BUS,15650,PA,Latrobe, ,148 Aviation Lane,Arnold Palmer Regional Airport,LTB,"Latrobe, PA",Arnold Palmer Regional Airport, ,-79.4054101218914,40.2728499623456
481,-121.263658,37.79836,Platform with Shelter,2018-09-26T07:04:48,TRAIN,95330,CA,Manteca, ,17800 Shideler Parkway, ,LTM,"Lathrop-Manteca, CA", ,Manteca,-121.263671041834,37.7983650300533
482,-118.00058,34.521339,Curbside Bus Stop only (no shelter),2018-09-26T07:04:48,BUS,93543,CA,Littlerock, ,7225 Pearblossom Hwy, ,LTR,"Littlerock, CA", , ,-118.000592185549,34.5213439217238
483,-123.482019,39.686633,Curbside Bus Stop only (no shelter),2018-09-26T07:04:48,BUS,95454,CA,Laytonville, ,44900 Highway 101, ,LTV,"Laytonville, CA", , ,-123.482032612124,39.6866380103114
484,-85.772623,38.248724,Station Building (with waiting room),2023-09-29T07:00:00,BUS,40203,KY,Louisville,Suite 101,1211 West Broadway, ,LVL,"Louisville, KY", , ,-85.772627890757,38.2487312895876
485,-119.118687,37.955403,Curbside Bus Stop only (no shelter),2018-02-18T07:04:25,BUS,95541,CA,Lee Vining, ,30 Main Street, ,LVN,"Lee Vining, CA", , ,-119.118699715623,37.9554082005263
486,-76.95427,40.620141,Curbside Bus Stop only (no shelter),2024-04-03T07:07:46,BUS,17045,PA,Liverpool, ,U.S. Highway 11/15 & State Highway 104,Park & Ride Lot,LVP,"Liverpool, PA",Park & Ride Lot, ,-76.9542723799239,40.6201491286124
487,-76.994126,40.56632,Curbside Bus Stop only (no shelter),2019-02-14T07:03:22,BUS,17045,PA,Liverpool, ,1412 Susquehanna Trail,Lowes restaurant,LVR,"Liverpool, PA",Lowes restaurant, ,-76.9941283886819,40.5663281167162
488,-115.149734,36.164458,Curbside Bus Stop only (no shelter),2021-03-23T07:03:54,BUS,89101,NV,Las Vegas, ,624 South 1st Street, ,LVS,"Las Vegas, NV", , ,-115.14974583296,36.1644632812511
489,-115.163629,36.068464,Curbside Bus Stop only (no shelter),2021-12-02T07:04:36,BUS,89119,NV,Las Vegas, ,6675 Gilespie Street,South Strip Transfer Terminal,LVT,"Las Vegas, NV",South Strip Transfer Terminal, ,-115.163640825553,36.0684692698121
490,-94.728322,32.494032,Station Building (with waiting room),2017-11-06T07:05:17,TRAIN,75602,TX,Longview, ,905 Pacific Avenue, ,LVW,"Longview, TX", , ,-94.7283289768442,32.4940377694034
491,-120.643965,47.606493,Platform with Shelter,2019-02-14T07:03:22,TRAIN,98826,WA,Leavenworth, ,11645 North Road ,Icicle Station,LWA,"Leavenworth, WA",Icicle Station, ,-120.643979614857,47.6064988005714
492,-77.574643,40.597123,Curbside Bus Stop only (no shelter),2019-02-14T07:03:22,BUS,17044,PA,Lewistown, ,6 West Market Street,Laskaris restaurant,LWB,"Lewistown, PA",Laskaris restaurant, ,-77.5746455734039,40.5971311000412
493,-117.005923,46.426931,Curbside Bus Stop only (no shelter),2018-09-26T07:04:48,BUS,83501,ID,Lewiston, ,1920 Highway 128, ,LWN,"Lewiston, ID", , ,-117.005936701491,46.426937104148
494,-79.156934,37.406439,Station Building (with waiting room),2017-11-06T07:05:18,TRAIN,24501,VA,Lynchburg, ,825 Kemper Street, ,LYH,"Lynchburg, VA", , ,-79.156936858109,37.4064464016767
495,-90.67094,40.461212,Station Building (with waiting room),2024-06-08T07:05:50,TRAIN,61455,IL,Macomb, ,120 East Calhoun Street,Thomas C. Carper Station,MAC,"Macomb, IL",Thomas C. Carper Station, ,-90.670946488105,40.4612194394848
496,-121.133533,44.618898,Curbside Bus Stop only (no shelter),2021-05-21T07:03:59,BUS,97741,OR,Madras, ,1210 Southwest Highway 97, ,MAD,"Madras, OR", , ,-121.133547056387,44.6189035641602
497,-88.955212,37.729643,Station Building (with waiting room),2020-08-29T07:03:25,BUS,62959,IL,Marion, ,2315 W Main St, ,MAI,"Marion, IL", , ,-88.9552177658573,37.7296500385865
498,-84.72577,45.781335,Curbside Bus Stop only (no shelter),2018-09-27T07:04:54,BUS,49701,MI,Mackinaw City, ,102 South Huron Ave., ,MAK,"Mackinaw City, MI", , ,-84.725775293161,45.7813436614713
499,-107.872242,48.360477,Station Building (with waiting room),2017-11-06T07:05:18,TRAIN,59538,MT,Malta, ,51 South 1st Street East, ,MAL,"Malta, MT", , ,-107.872254186826,48.3604841805846
500,-88.376045,39.48273,Station Building (with waiting room),2017-11-06T07:05:18,TRAIN,61938,IL,Mattoon, ,1718 Broadway Avenue, ,MAT,"Mattoon, IL", , ,-88.3760507445158,39.4827373913532
501,-83.771074,38.652148,Station Building (with waiting room),2017-11-06T07:05:18,TRAIN,41056,KY,Maysville, ,West Front Street & Rosemary Clooney Street, ,MAY,"Maysville, KY", , ,-83.771078330907,38.6521554593225
502,-73.169775,44.017425,Platform with Shelter,2022-05-14T07:04:10,TRAIN,05753,VT,Middlebury, ,30 Middle Seymour Street ,Amtrak Station,MBY,"Middlebury, VT",Amtrak Station, ,-73.1697763927624,44.0174339077669
503,-90.451334,31.244467,Station Building (with waiting room),2017-11-06T07:05:19,TRAIN,39648,MS,McComb, ,114 North Railroad Avenue, ,MCB,"McComb, MS", , ,-90.451339774799,31.2444726785847
504,-120.476805,37.307183,Station Building (with waiting room),2017-11-06T07:05:19,TRAIN,95340,CA,Merced, ,324 West 24th Street, ,MCD,"Merced, CA", , ,-120.476817862972,37.3071880425907
505,-97.404756,31.443352,Station Building (with waiting room),2019-11-05T07:03:19,TRAIN,76657,TX,McGregor, ,1 Amtrak Boulevard, ,MCG,"McGregor, TX", , ,-97.4047636009775,31.4433574571104
506,-100.625792,40.197634,Station Building (with waiting room),2017-11-06T07:05:19,TRAIN,69001,NE,McCook, ,101 Norris Avenue, ,MCK,"McCook, NE", , ,-100.62580111332,40.1976407813338
